$GPGGA,024403.000,,,,,0,07,,,M,,M,,*7E$
$GPGGA,024403.000,,,,,0,07,,,M,,M,,*7E$
M-^?M-^?M-^?M-^?M-^?M-^?M-^?M-^?M-^?M-^?M-^?M-^?M-^?^L$GPGGA,024403.000,,,,,0,07,,,M,,M,,*7E$
M-^?M-^?M-^?M-^?M-^?M-^?M-^?M-^?M-^?M-^?M-^?M-^?M-^?^L$GPGGA,024404.000,,,,,0,07,,,M,,M,,*79$
$GPGGA,024403.000,,,,,0,07,,,M,,M,,*7E$
M-^?M-^?M-^?M-^?M-^?M-^?M-^?M-^?M-^?M-^?M-^?M-^?M-^?^L$GPGGA,024404.000,,,,,0,07,,,M,,M,,*79$
$GPGGA,024403.000,,,,,0,07,,,M,,M,,*7E$
$GPGGA,024405.000,4458.6433,N,09311.0356,W,1,07,1.17,282.5,M,-32.0,M,,*5D$
M-^?M-^?M-^?M-^?M-^?M-^?M-^?M-^?M-^?M-^?M-^?M-^?M-^?^L$GPGGA,024404.000,,,,,0,07,,,M,,M,,*79$
$GPGGA,024403.000,,,,,0,07,,,M,,M,,*7E$
$GPGGA,024405.000,4458.6433,N,09311.0356,W,1,07,1.17,282.5,M,-32.0,M,,*5D$
$GPGGA,024406.000,4458.6415,N,09311.0339,W,1,06,2.01,282.2,M,-32.0,M,,*51$
$GPGGA,024404.000,,,,,0,07,,,M,,M,,*79$
$GPGGA,024403.000,,,,,0,07,,,M,,M,,*7E$
$GPGGA,024405.000,4458.6433,N,09311.0356,W,1,07,1.17,282.5,M,-32.0,M,,*5D$
$GPGGA,024407.000,4458.6390,N,09311.0347,W,1,06,2.01,282.3,M,-32.0,M,,*52$
$GPGGA,024406.000,4458.6415,N,09311.0339,W,1,06,2.01,282.2,M,-32.0,M,,*51$
$GPGGA,024404.000,,,,,0,07,,,M,,M,,*79$
$GPGGA,024408.000,4458.6364,N,09311.0350,W,1,06,2.01,282.4,M,-32.0,M,,*57$
$GPGGA,024403.000,,,,,0,07,,,M,,M,,*7E$
$GPGGA,024405.000,4458.6433,N,09311.0356,W,1,07,1.17,282.5,M,-32.0,M,,*5D$
$GPGGA,024407.000,4458.6390,N,09311.0347,W,1,06,2.01,282.3,M,-32.0,M,,*52$
$GPGGA,024406.000,4458.6415,N,09311.0339,W,1,06,2.01,282.2,M,-32.0,M,,*51$
$GPGGA,024409.000,4458.6354,N,09311.0357,W,1,07,1.17,282.5,M,-32.0,M,,*56$
$GPGGA,024404.000,,,,,0,07,,,M,,M,,*79$
$GPGGA,024408.000,4458.6364,N,09311.0350,W,1,06,2.01,282.4,M,-32.0,M,,*57$
$GPGGA,024410.000,4458.6346,N,09311.0363,W,1,07,1.59,282.6,M,-32.0,M,,*53$
$GPGGA,024403.000,,,,,0,07,,,M,,M,,*7E$
$GPGGA,024405.000,4458.6433,N,09311.0356,W,1,07,1.17,282.5,M,-32.0,M,,*5D$
$GPGGA,024407.000,4458.6390,N,09311.0347,W,1,06,2.01,282.3,M,-32.0,M,,*52$
$GPGGA,024406.000,4458.6415,N,09311.0339,W,1,06,2.01,282.2,M,-32.0,M,,*51$
$GPGGA,024411.000,4458.6340,N,09311.0369,W,1,07,1.59,282.6,M,-32.0,M,,*5E$
$GPGGA,024409.000,4458.6354,N,09311.0357,W,1,07,1.17,282.5,M,-32.0,M,,*56$
$GPGGA,024404.000,,,,,0,07,,,M,,M,,*79$
$GPGGA,024412.000,4458.6333,N,09311.0375,W,1,07,1.06,282.7,M,-32.0,M,,*5F$
$GPGGA,024408.000,4458.6364,N,09311.0350,W,1,06,2.01,282.4,M,-32.0,M,,*57$
$GPGGA,024410.000,4458.6346,N,09311.0363,W,1,07,1.59,282.6,M,-32.0,M,,*53$
$GPGGA,024413.000,4458.6326,N,09311.0380,W,1,07,1.06,282.6,M,-32.0,M,,*51$
$GPGGA,024403.000,,,,,0,07,,,M,,M,,*7E$
M-^?M-^?M-^?M-^?M-^?M-^?M-^?M-^?M-^?M-^?M-^?M-^?M-^?M-^?M-^?M-^?M-^?M-^?M-^?M-^?M-^?M-^?M-^?^L$GPGGA,024405.000,4458.6433,N,09311.0356,W,1,07,1.17,282.5,M,-32.0,M,,*5D$
$GPGGA,024407.000,4458.6390,N,09311.0347,W,1,06,2.01,282.3,M,-32.0,M,,*52$
$GPGGA,024406.000,4458.6415,N,09311.0339,W,1,06,2.01,282.2,M,-32.0,M,,*51$
$GPGGA,024411.000,4458.6340,N,09311.0369,W,1,07,1.59,282.6,M,-32.0,M,,*5E$
$GPGGA,024414.000,4458.6326,N,09311.0383,W,1,07,1.06,282.5,M,-32.0,M,,*56$
$GPGGA,024409.000,4458.6354,N,09311.0357,W,1,07,1.17,282.5,M,-32.0,M,,*56$
$GPGGA,024415.000,4458.6326,N,09311.0385,W,1,07,1.06,282.5,M,-32.0,M,,*51$
$GPGGA,024404.000,,,,,0,07,,,M,,M,,*79$
M-^?M-^?M-^?M-^?M-^?M-^?M-^?M-^?M-^?M-^?M-^?M-^?M-^?M-^?M-^?M-^?M-^?M-^?M-^?M-^?M-^?M-^?M-^?^L$GPGGA,024412.000,4458.6333,N,09311.0375,W,1,07,1.06,282.7,M,-32.0,M,,*5F$
$GPGGA,024408.000,4458.6364,N,09311.0350,W,1,06,2.01,282.4,M,-32.0,M,,*57$
$GPGGA,024416.000,4458.6324,N,09311.0388,W,1,07,1.06,282.5,M,-32.0,M,,*5D$
$GPGGA,024410.000,4458.6346,N,09311.0363,W,1,07,1.59,282.6,M,-32.0,M,,*53$
$GPGGA,024413.000,4458.6326,N,09311.0380,W,1,07,1.06,282.6,M,-32.0,M,,*51$
$GPGGA,024403.000,,,,,0,07,,,M,,M,,*7E$
$GPGGA,024405.000,4458.6433,N,09311.0356,W,1,07,1.17,282.5,M,-32.0,M,,*5D$
$GPGGA,024417.000,4458.6325,N,09311.0391,W,1,07,1.06,282.5,M,-32.0,M,,*55$
$GPGGA,024407.000,4458.6390,N,09311.0347,W,1,06,2.01,282.3,M,-32.0,M,,*52$
$GPGGA,024406.000,4458.6415,N,09311.0339,W,1,06,2.01,282.2,M,-32.0,M,,*51$
$GPGGA,024411.000,4458.6340,N,09311.0369,W,1,07,1.59,282.6,M,-32.0,M,,*5E$
$GPGGA,024414.000,4458.6326,N,09311.0383,W,1,07,1.06,282.5,M,-32.0,M,,*56$
$GPGGA,024418.000,4458.6326,N,09311.0392,W,1,06,1.41,282.6,M,-32.0,M,,*5B$
$GPGGA,024409.000,4458.6354,N,09311.0357,W,1,07,1.17,282.5,M,-32.0,M,,*56$
$GPGGA,024419.000,4458.6329,N,09311.0393,W,1,06,1.41,282.6,M,-32.0,M,,*54$
$GPGGA,024415.000,4458.6326,N,09311.0385,W,1,07,1.06,282.5,M,-32.0,M,,*51$
$GPGGA,024404.000,,,,,0,07,,,M,,M,,*79$
$GPGGA,024412.000,4458.6333,N,09311.0375,W,1,07,1.06,282.7,M,-32.0,M,,*5F$
$GPGGA,024420.000,4458.6330,N,09311.0393,W,1,06,1.41,282.6,M,-32.0,M,,*56$
$GPGGA,024408.000,4458.6364,N,09311.0350,W,1,06,2.01,282.4,M,-32.0,M,,*57$
$GPGGA,024416.000,4458.6324,N,09311.0388,W,1,07,1.06,282.5,M,-32.0,M,,*5D$
$GPGGA,024410.000,4458.6346,N,09311.0363,W,1,07,1.59,282.6,M,-32.0,M,,*53$
$GPGGA,024421.000,4458.6332,N,09311.0393,W,1,06,1.41,282.6,M,-32.0,M,,*55$
$GPGGA,024413.000,4458.6326,N,09311.0380,W,1,07,1.06,282.6,M,-32.0,M,,*51$
$GPGGA,024403.000,,,,,0,07,,,M,,M,,*7E$
$GPGGA,024405.000,4458.6433,N,09311.0356,W,1,07,1.17,282.5,M,-32.0,M,,*5D$
$GPGGA,024417.000,4458.6325,N,09311.0391,W,1,07,1.06,282.5,M,-32.0,M,,*55$
$GPGGA,024422.000,4458.6333,N,09311.0394,W,1,06,1.41,282.6,M,-32.0,M,,*50$
$GPGGA,024407.000,4458.6390,N,09311.0347,W,1,06,2.01,282.3,M,-32.0,M,,*52$
$GPGGA,024406.000,4458.6415,N,09311.0339,W,1,06,2.01,282.2,M,-32.0,M,,*51$
$GPGGA,024411.000,4458.6340,N,09311.0369,W,1,07,1.59,282.6,M,-32.0,M,,*5E$
$GPGGA,024423.000,4458.6334,N,09311.0394,W,1,06,1.41,282.6,M,-32.0,M,,*56$
$GPGGA,024414.000,4458.6326,20,,,,,,,2.21,2.01,0.91*02$
$GPGGA,024411.000,4458.6340,N,09311.0369,W,1,07,1.59,282.6,M,-32.0,M,,*5E$
$GPGGA,024423.000,4458.6334,N,09311.0394,W,1,06,1.41,282.6,M,-32.0,M,,*56$
$GPGGA,024430.000,4458.6326,N,09311.0420,W,1,06,1.26,282.7,M,-32.0,M,,*5F$
$GPGGA,024411.000,4458.6340,N,09311.0369,W,1,07,1.59,282.6,M,-32.0,M,,*5E$
$GPGGA,024423.000,4458.6334,N,09311.0394,W,1,06,1.41,282.6,M,-32.0,M,,*56$
$GPGGA,024430.000,4458.6326,N,09311.0420,W,1,06,1.26,282.7,M,-32.0,M,,*5F$
$GPGGA,024431.000,4458.6316,N,09311.0426,W,1,06,1.26,282.7,M,-32.0,M,,*5B$
$GPGGA,024411.000,4458.6340,N,09311.0369,W,1,07,1.59,282.6,M,-32.0,M,,*5E$
$GPGGA,024423.000,4458.6334,N,09311.0394,W,1,06,1.41,282.6,M,-32.0,M,,*56$
$GPGGA,024430.000,4458.6326,N,09311.0420,W,1,06,1.26,282.7,M,-32.0,M,,*5F$
$GPGGA,024431.000,4458.6316,N,09311.0426,W,1,06,1.26,282.7,M,-32.0,M,,*5B$
$GPGGA,024432.000,4458.6302,N,09311.0432,W,1,06,1.26,282.7,M,-32.0,M,,*58$
$GPGGA,024411.000,4458.6340,N,09311.0369,W,1,07,1.59,282.6,M,-32.0,M,,*5E$
$GPGGA,024423.000,4458.6334,N,09311.0394,W,1,06,1.41,282.6,M,-32.0,M,,*56$
$GPGGA,024430.000,4458.6326,N,09311.0420,W,1,06,1.26,282.7,M,-32.0,M,,*5F$
$GPGGA,024433.000,4458.6284,N,09311.0440,W,1,06,1.26,282.7,M,-32.0,M,,*53$
M-^?M-^?M-^?M-^?M-^?M-^?M-^?M-^?M-^?M-^?M-^?M-^?M-^?M-^?M-^?M-^?M-^?M-^?M-^?M-^?M-^?M-^?M-^?M-^?M-^?M-^?M-^?M-^?^L$GPGGA,024431.000,4458.6316,N,09311.0426,W,1,06,1.26,282.7,M,-32.0,M,,*5B$
$GPGGA,024432.000,4458.6302,N,09311.0432,W,1,06,1.26,282.7,M,-32.0,M,,*58$
$GPGGA,024411.000,4458.6340,N,09311.0369,W,1,07,1.59,282.6,M,-32.0,M,,*5E$
$GPGGA,024434.000,4458.6273,N,09311.0454,W,1,07,1.17,282.7,M,-32.0,M,,*5A$
$GPGGA,024423.000,4458.6334,N,09311.0394,W,1,06,1.41,282.6,M,-32.0,M,,*56$
$GPGGA,024430.000,4458.6326,N,09311.0420,W,1,06,1.26,282.7,M,-32.0,M,,*5F$
$GPGGA,024433.000,4458.6284,N,09311.0440,W,1,06,1.26,282.7,M,-32.0,M,,*53$
$GPGGA,024431.000,4458.6316,N,09311.0426,W,1,06,1.26,282.7,M,-32.0,M,,*5B$
$GPGGA,024432.000,4458.6302,N,09311.0432,W,1,06,1.26,282.7,M,-32.0,M,,*58$
$GPGGA,024435.000,4458.6240,N,09311.0508,W,1,07,1.17,282.7,M,-32.0,M,,*53$
$GPGGA,024411.000,4458.6340,N,09311.0369,W,1,07,1.59,282.6,M,-32.0,M,,*5E$
$GPGGA,024434.000,4458.6273,N,09311.0454,W,1,07,1.17,282.7,M,-32.0,M,,*5A$
$GPGGA,024436.000,4458.6218,N,09311.0553,W,1,07,1.17,282.6,M,-32.0,M,,*52$
$GPGGA,024423.000,4458.6334,N,09311.0394,W,1,06,1.41,282.6,M,-32.0,M,,*56$
$GPGGA,024430.000,4458.6326,N,09311.0420,W,1,06,1.26,282.7,M,-32.0,M,,*5F$
$GPGGA,024433.000,4458.6284,N,09311.0440,W,1,06,1.26,282.7,M,-32.0,M,,*53$
$GPGGA,024437.000,4458.6193,N,09311.0596,W,1,07,1.17,282.6,M,-32.0,M,,*5A$
$GPGGA,024431.000,4458.6316,N,09311.0426,W,1,06,1.26,282.7,M,-32.0,M,,*5B$
$GPGGA,024432.000,4458.6302,N,09311.0432,W,1,06,1.26,282.7,M,-32.0,M,,*58$
$GPGGA,024435.000,4458.6240,N,09311.0508,W,1,07,1.17,282.7,M,-32.0,M,,*53$
$GPGGA,024438.000,4458.6191,N,09311.0604,W,1,07,1.17,282.6,M,-32.0,M,,*5F$
$GPGGA,024411.000,4458.6340,N,09311.0369,W,1,07,1.59,282.6,M,-32.0,M,,*5E$
$GPGGA,024434.000,4458.6273,N,09311.0454,W,1,07,1.17,282.7,M,-32.0,M,,*5A$
$GPGGA,024436.000,4458.6218,N,09311.0553,W,1,07,1.17,282.6,M,-32.0,M,,*52$
$GPGGA,024439.000,4458.6189,N,09311.0609,W,1,07,1.17,282.6,M,-32.0,M,,*5A$
$GPGGA,024423.000,4458.6334,N,09311.0394,W,1,06,1.41,282.6,M,-32.0,M,,*56$
$GPGGA,024430.000,4458.6326,N,09311.0420,W,1,06,1.26,282.7,M,-32.0,M,,*5F$
$GPGGA,024433.000,4458.6284,N,09311.0440,W,1,06,1.26,282.7,M,-32.0,M,,*53$
$GPGGA,024437.000,4458.6193,N,09311.0596,W,1,07,1.17,282.6,M,-32.0,M,,*5A$
$GPGGA,024440.000,4458.6190,N,09311.0616,W,1,07,1.17,282.5,M,-32.0,M,,*51$
$GPGGA,024431.000,4458.6316,N,09311.0426,W,1,06,1.26,282.7,M,-32.0,M,,*5B$
$GPGGA,024432.000,4458.6302,N,09311.0432,W,1,06,1.26,282.7,M,-32.0,M,,*58$
$GPGGA,024435.000,4458.6240,N,09311.0508,W,1,07,1.17,282.7,M,-32.0,M,,*53$
$GPGGA,024441.000,4458.6191,N,09311.0623,W,1,07,1.17,282.5,M,-32.0,M,,*57$
$GPGGA,024438.000,4458.6191,N,09311.0604,W,1,07,1.17,282.6,M,-32.0,M,,*5F$
$GPGGA,024411.000,4458.6340,N,09311.0369,W,1,07,1.59,282.6,M,-32.0,M,,*5E$
$GPGGA,024434.000,4458.6273,N,09311.0454,W,1,07,1.17,282.7,M,-32.0,M,,*5A$
$GPGGA,024442.000,4458.6192,N,09311.0631,W,1,07,1.17,282.5,M,-32.0,M,,*54$
$GPGGA,024436.000,4458.6218,N,09311.0553,W,1,07,1.17,282.6,M,-32.0,M,,*52$
$GPGGA,024439.000,4458.6189,N,09311.0609,W,1,07,1.17,282.6,M,-32.0,M,,*5A$
$GPGGA,024443.000,4458.6195,N,09311.0637,W,1,07,1.17,282.5,M,-32.0,M,,*54$
$GPGGA,024423.000,4458.6334,N,09311.0394,W,1,06,1.41,282.6,M,-32.0,M,,*56$
$GPGGA,024430.000,4458.6326,N,09311.0420,W,1,06,1.26,282.7,M,-32.0,M,,*5F$
$GPGGA,024433.000,4458.6284,N,09311.0440,W,1,06,1.26,282.7,M,-32.0,M,,*53$
$GPGGA,024437.000,4458.6193,N,09311.0596,W,1,07,1.17,282.6,M,-32.0,M,,*5A$
$GPGGA,024444.000,4458.6200,N,09311.0642,W,1,07,1.17,282.5,M,-32.0,M,,*5E$
M-^?M-^?M-^?M-^?M-^?M-^?M-^?^L$GPGGA,024440.000,4458.6190,N,09311.0616,W,1,07,1.17,282.5,M,-32.0,M,,*51$
$GPGGA,024431.000,4458.6316,N,09311.0426,W,1,06,1.26,282.7,M,-32.0,M,,*5B$
$GPGGA,024432.000,4458.6302,N,09311.0432,W,1,06,1.26,282.7,M,-32.0,M,,*58$
$GPGGA,024435.000,4458.6240,N,09311.0508,W,1,07,1.17,282.7,M,-32.0,M,,*53$
$GPGGA,024445.000,4458.6201,N,09311.0648,W,1,07,1.17,282.5,M,-32.0,M,,*54$
$GPGGA,024441.000,4458.6191,N,09311.0623,W,1,07,1.17,282.5,M,-32.0,M,,*57$
$GPGGA,024438.000,4458.6191,N,09311.0604,W,1,07,1.17,282.6,M,-32.0,M,,*5F$
$GPGGA,024446.000,4458.6203,N,09311.0653,W,1,07,1.17,282.5,M,-32.0,M,,*5F$
$GPGGA,024411.000,4458.6340,N,09311.0369,W,1,07,1.59,282.6,M,-32.0,M,,*5E$
$GPGGA,024434.000,4458.6273,N,09311.0454,W,1,07,1.17,282.7,M,-32.0,M,,*5A$
$GPGGA,024442.000,4458.6192,N,09311.0631,W,1,07,1.17,282.5,M,-32.0,M,,*54$
$GPGGA,024447.000,4458.6204,N,09311.0657,W,1,07,1.17,282.4,M,-32.0,M,,*5C$
$GPGGA,024436.000,4458.6218,N,09311.0553,W,1,07,1.17,282.6,M,-32.0,M,,*52$
$GPGGA,024439.000,4458.6189,N,09311.0609,W,1,07,1.17,282.6,M,-32.0,M,,*5A$
$GPGGA,024448.000,4458.6205,N,09311.0662,W,1,07,1.17,282.4,M,-32.0,M,,*54$
$GPGGA,024443.000,4458.6195,N,09311.0637,W,1,07,1.17,282.5,M,-32.0,M,,*54$
$GPGGA,024423.000,4458.6334,N,09311.0394,W,1,06,1.41,282.6,M,-32.0,M,,*56$
$GPGGA,024430.000,4458.6326,N,09311.0420,W,1,06,1.26,282.7,M,-32.0,M,,*5F$
$GPGGA,024449.000,4458.6204,N,09311.0668,W,1,07,1.17,282.4,M,-32.0,M,,*5E$
$GPGGA,024423.000,4458.6334,N,09311.0394,W,1,06,1.41,282.6,M,-32.0,M,,*56$
$GPGGA,024430.000,4458.6326,N,09311.0420,W,1,06,1.26,282.7,M,-32.0,M,,*5F$
$GPGGA,024456.000,4458.6205,N,09311.0694,W,1,08,1.08,282.3,M,-32.0,M,,*54$
$GPGGA,024449.000,4458.6204,N,09311.0668,W,1,07,1.17,282.4,M,-32.0,M,,*5E$
$GPGGA,024423.000,4458.6334,N,09311.0394,W,1,06,1.41,282.6,M,-32.0,M,,*56$
$GPGGA,024430.000,4458.6326,N,09311.0420,W,1,06,1.26,282.7,M,-32.0,M,,*5F$
$GPGGA,024456.000,4458.6205,N,09311.0694,W,1,08,1.08,282.3,M,-32.0,M,,*54$
$GPGGA,024457.000,4458.6207,N,09311.0695,W,1,08,1.08,282.3,M,-32.0,M,,*56$
$GPGGA,024449.000,4458.6204,N,09311.0668,W,1,07,1.17,282.4,M,-32.0,M,,*5E$
$GPGGA,024423.000,4458.6334,N,09311.0394,W,1,06,1.41,282.6,M,-32.0,M,,*56$
$GPGGA,024430.000,4458.6326,N,09311.0420,W,1,06,1.26,282.7,M,-32.0,M,,*5F$
$GPGGA,024456.000,4458.6205,N,09311.0694,W,1,08,1.08,282.3,M,-32.0,M,,*54$
$GPGGA,024458.000,4458.6208,N,09311.0695,W,1,08,1.08,282.3,M,-32.0,M,,*56$
$GPGGA,024457.000,4458.6207,N,09311.0695,W,1,08,1.08,282.3,M,-32.0,M,,*56$
$GPGGA,024449.000,4458.6204,N,09311.0668,W,1,07,1.17,282.4,M,-32.0,M,,*5E$
$GPGGA,024423.000,4458.6334,N,09311.0394,W,1,06,1.41,282.6,M,-32.0,M,,*56$
$GPGGA,024430.000,4458.6326,N,09311.0420,W,1,06,1.26,282.7,M,-32.0,M,,*5F$
$GPGGA,024459.000,4458.6209,N,09311.0697,W,1,07,1.17,282.3,M,-32.0,M,,*55$
$GPGGA,024456.000,4458.6205,N,09311.0694,W,1,08,1.08,282.3,M,-32.0,M,,*54$
$GPGGA,024458.000,4458.6208,N,09311.0695,W,1,08,1.08,282.3,M,-32.0,M,,*56$
$GPGGA,024457.000,4458.6207,N,09311.0695,W,1,08,1.08,282.3,M,-32.0,M,,*56$
$GPGGA,024449.000,4458.6204,N,09311.0668,W,1,07,1.17,282.4,M,-32.0,M,,*5E$
$GPGGA,024500.000,4458.6209,N,09311.0700,W,1,07,1.17,282.3,M,-32.0,M,,*57$
$GPGGA,024423.000,4458.6334,N,09311.0394,W,1,06,1.41,282.6,M,-32.0,M,,*56$
$GPGGA,024430.000,4458.6326,N,09311.0420,W,1,06,1.26,282.7,M,-32.0,M,,*5F$
$GPGGA,024459.000,4458.6209,N,09311.0697,W,1,07,1.17,282.3,M,-32.0,M,,*55$
$GPGGA,024501.000,4458.6209,N,09311.0703,W,1,08,1.08,282.3,M,-32.0,M,,*54$
M-^?M-^?M-^?M-^?M-^?M-^?M-^?M-^?M-^?M-^?M-^?M-^?M-^?M-^?M-^?M-^?M-^?M-^?M-^?M-^?M-^?M-^?M-^?M-^?M-^?M-^?M-^?M-^?^L$GPGGA,024456.000,4458.6205,N,09311.0694,W,1,08,1.08,282.3,M,-32.0,M,,*54$
$GPGGA,024458.000,4458.6208,N,09311.0695,W,1,08,1.08,282.3,M,-32.0,M,,*56$
$GPGGA,024457.000,4458.6207,N,09311.0695,W,1,08,1.08,282.3,M,-32.0,M,,*56$
$GPGGA,024502.000,4458.6209,N,09311.0704,W,1,08,1.08,282.3,M,-32.0,M,,*50$
$GPGGA,024449.000,4458.6204,N,09311.0668,W,1,07,1.17,282.4,M,-32.0,M,,*5E$
$GPGGA,024500.000,4458.6209,N,09311.0700,W,1,07,1.17,282.3,M,-32.0,M,,*57$
$GPGGA,024423.000,4458.6334,N,09311.0394,W,1,06,1.41,282.6,M,-32.0,M,,*56$
$GPGGA,024430.000,4458.6326,N,09311.0420,W,1,06,1.26,282.7,M,-32.0,M,,*5F$
$GPGGA,024503.000,4458.6210,N,09311.0706,W,1,08,1.08,282.3,M,-32.0,M,,*5B$
$GPGGA,024459.000,4458.6209,N,09311.0697,W,1,07,1.17,282.3,M,-32.0,M,,*55$
$GPGGA,024501.000,4458.6209,N,09311.0703,W,1,08,1.08,282.3,M,-32.0,M,,*54$
$GPGGA,024456.000,4458.6205,N,09311.0694,W,1,08,1.08,282.3,M,-32.0,M,,*54$
$GPGGA,024504.000,4458.6211,N,09311.0708,W,1,08,1.08,282.3,M,-32.0,M,,*53$
M-^?M-^?M-^?M-^?M-^?M-^?M-^?M-^?M-^?M-^?M-^?M-^?M-^?M-^?M-^?M-^?M-^?M-^?M-^?M-^?M-^?M-^?M-^?M-^?M-^?M-^?M-^?M-^?^L$GPGGA,024458.000,4458.6208,N,09311.0695,W,1,08,1.08,282.3,M,-32.0,M,,*56$
$GPGGA,024457.000,4458.6207,N,09311.0695,W,1,08,1.08,282.3,M,-32.0,M,,*56$
$GPGGA,024502.000,4458.6209,N,09311.0704,W,1,08,1.08,282.3,M,-32.0,M,,*50$
$GPGGA,024505.000,4458.6212,N,09311.0709,W,1,08,1.08,282.3,M,-32.0,M,,*50$
$GPGGA,024449.000,4458.6204,N,09311.0668,W,1,07,1.17,282.4,M,-32.0,M,,*5E$
$GPGGA,024500.000,4458.6209,N,09311.0700,W,1,07,1.17,282.3,M,-32.0,M,,*57$
$GPGGA,024423.000,4458.6334,N,09311.0394,W,1,06,1.41,282.6,M,-32.0,M,,*56$
$GPGGA,024430.000,4458.6326,N,09311.0420,W,1,06,1.26,282.7,M,-32.0,M,,*5F$
$GPGGA,024506.000,4458.6213,N,09311.0710,W,1,08,1.08,282.3,M,-32.0,M,,*5A$
$GPGGA,024503.000,4458.6210,N,09311.0706,W,1,08,1.08,282.3,M,-32.0,M,,*5B$
$GPGGA,024459.000,4458.6209,N,09311.0697,W,1,07,1.17,282.3,M,-32.0,M,,*55$
$GPGGA,024501.000,4458.6209,N,09311.0703,W,1,08,1.08,282.3,M,-32.0,M,,*54$
$GPGGA,024507.000,4458.6214,N,09311.0712,W,1,08,1.08,282.3,M,-32.0,M,,*5E$
M-^?M-^?M-^?M-^?M-^?M-^?M-^?M-^?M-^?M-^?M-^?M-^?M-^?M-^?M-^?M-^?M-^?M-^?M-^?M-^?M-^?M-^?M-^?M-^?M-^?M-^?M-^?M-^?^L$GPGGA,024456.000,4458.6205,N,09311.0694,W,1,08,1.08,282.3,M,-32.0,M,,*54$
$GPGGA,024504.000,4458.6211,N,09311.0708,W,1,08,1.08,282.3,M,-32.0,M,,*53$
$GPGGA,024458.000,4458.6208,N,09311.0695,W,1,08,1.08,282.3,M,-32.0,M,,*56$
$GPGGA,024508.000,4458.6215,N,09311.0713,W,1,08,1.08,282.3,M,-32.0,M,,*51$
$GPGGA,024457.000,4458.6207,N,09311.0695,W,1,08,1.08,282.3,M,-32.0,M,,*56$
$GPGGA,024502.000,4458.6209,N,09311.0704,W,1,08,1.08,282.3,M,-32.0,M,,*50$
$GPGGA,024505.000,4458.6212,N,09311.0709,W,1,08,1.08,282.3,M,-32.0,M,,*50$
$GPGGA,024509.000,4458.6216,N,09311.0715,W,1,07,1.16,282.3,M,-32.0,M,,*55$
$GPGGA,024449.000,4458.6204,N,09311.0668,W,1,07,1.17,282.4,M,-32.0,M,,*5E$
$GPGGA,024500.000,4458.6209,N,09311.0700,W,1,07,1.17,282.3,M,-32.0,M,,*57$
$GPGGA,024423.000,4458.6334,N,09311.0394,W,1,06,1.41,282.6,M,-32.0,M,,*56$
$GPGGA,024430.000,4458.6326,N,09311.0420,W,1,06,1.26,282.7,M,-32.0,M,,*5F$
$GPGGA,024510.000,4458.6216,N,09311.0718,W,1,07,1.16,282.3,M,-32.0,M,,*50$
$GPGGA,024506.000,4458.6213,N,09311.0710,W,1,08,1.08,282.3,M,-32.0,M,,*5A$
$GPGGA,024503.000,4458.6210,N,09311.0706,W,1,08,1.08,282.3,M,-32.0,M,,*5B$
$GPGGA,024459.000,4458.6209,N,09311.0697,W,1,07,1.17,282.3,M,-32.0,M,,*55$
$GPGGA,024511.000,4458.6190,N,09311.0747,W,1,07,1.16,282.3,M,-32.0,M,,*56$
$GPGGA,024501.000,4458.6209,N,09311.0703,W,1,08,1.08,282.3,M,-32.0,M,,*54$
$GPGGA,024507.000,4458.6214,N,09311.0712,W,1,08,1.08,282.3,M,-32.0,M,,*5E$
$GPGGA,024456.000,4458.6205,N,09311.0694,W,1,08,1.08,282.3,M,-32.0,M,,*54$
$GPGGA,024512.000,4458.6169,N,09311.0768,W,1,07,1.16,282.3,M,-32.0,M,,*5E$
$GPGGA,024504.000,4458.6211,N,09311.0708,W,1,08,1.08,282.3,M,-32.0,M,,*53$
$GPGGA,024458.000,4458.6208,N,09311.0695,W,1,08,1.08,282.3,M,-32.0,M,,*56$
$GPGGA,024508.000,4458.6215,N,09311.0713,W,1,08,1.08,282.3,M,-32.0,M,,*51$
$GPGGA,024513.000,4458.6153,N,09311.0785,W,1,07,1.16,282.3,M,-32.0,M,,*55$
$GPGGA,024457.000,4458.6207,N,09311.0695,W,1,08,1.08,282.3,M,-32.0,M,,*56$
$GPGGA,024502.000,4458.6209,N,09311.0704,W,1,08,1.08,282.3,M,-32.0,M,,*50$
$GPGGA,024505.000,4458.6212,N,09311.0709,W,1,08,1.08,282.3,M,-32.0,M,,*50$
$GPGGA,024514.000,4458.6152,N,09311.0789,W,1,07,1.16,282.3,M,-32.0,M,,*5F$
M-^?M-^?M-^?M-^?M-^?^L$GPGGA,024509.000,4458.6216,N,09311.0715,W,1,07,1.16,282.3,M,-32.0,M,,*55$
$GPGGA,024449.000,4458.6204,N,09311.0668,W,1,07,1.17,282.4,M,-32.0,M,,*5E$
$GPGGA,024522.000,4458.6132,N,09311.0804,W,1,07,1.16,282.3,M,-32.0,M,,*56$
$GPGGA,024449.000,4458.6204,N,09311.0668,W,1,07,1.17,282.4,M,-32.0,M,,*5E$
$GPGGA,024522.000,4458.6132,N,09311.0804,W,1,07,1.16,282.3,M,-32.0,M,,*56$
$GPGGA,024523.000,4458.6132,N,09311.0804,W,1,07,1.16,282.3,M,-32.0,M,,*57$
$GPGGA,024449.000,4458.6204,N,09311.0668,W,1,07,1.17,282.4,M,-32.0,M,,*5E$
$GPGGA,024522.000,4458.6132,N,09311.0804,W,1,07,1.16,282.3,M,-32.0,M,,*56$
$GPGGA,024524.000,4458.6131,N,09311.0804,W,1,07,1.16,282.3,M,-32.0,M,,*53$
$GPGGA,024523.000,4458.6132,N,09311.0804,W,1,07,1.16,282.3,M,-32.0,M,,*57$
$GPGGA,024449.000,4458.6204,N,09311.0668,W,1,07,1.17,282.4,M,-32.0,M,,*5E$
$GPGGA,024525.000,4458.6131,N,09311.0803,W,1,07,1.16,282.3,M,-32.0,M,,*55$
$GPGGA,024522.000,4458.6132,N,09311.0804,W,1,07,1.16,282.3,M,-32.0,M,,*56$
$GPGGA,024524.000,4458.6131,N,09311.0804,W,1,07,1.16,282.3,M,-32.0,M,,*53$
$GPGGA,024523.000,4458.6132,N,09311.0804,W,1,07,1.16,282.3,M,-32.0,M,,*57$
$GPGGA,024526.000,4458.6131,N,09311.0802,W,1,07,1.16,282.3,M,-32.0,M,,*57$
$GPGGA,024449.000,4458.6204,N,09311.0668,W,1,07,1.17,282.4,M,-32.0,M,,*5E$
$GPGGA,024525.000,4458.6131,N,09311.0803,W,1,07,1.16,282.3,M,-32.0,M,,*55$
$GPGGA,024527.000,4458.6131,N,09311.0801,W,1,07,1.16,282.3,M,-32.0,M,,*55$
$GPGGA,024522.000,4458.6132,N,09311.0804,W,1,07,1.16,282.3,M,-32.0,M,,*56$
$GPGGA,024524.000,4458.6131,N,09311.0804,W,1,07,1.16,282.3,M,-32.0,M,,*53$
$GPGGA,024528.000,4458.6131,N,09311.0801,W,1,07,1.16,282.3,M,-32.0,M,,*5A$
M-^?M-^?M-^?M-^?M-^?M-^?M-^?M-^?M-^?M-^?M-^?M-^?M-^?M-^?M-^?M-^?M-^?M-^?M-^?M-^?M-^?M-^?M-^?M-^?M-^?M-^?M-^?M-^?^L$GPGGA,024523.000,4458.6132,N,09311.0804,W,1,07,1.16,282.3,M,-32.0,M,,*57$
$GPGGA,024526.000,4458.6131,N,09311.0802,W,1,07,1.16,282.3,M,-32.0,M,,*57$
$GPGGA,024449.000,4458.6204,N,09311.0668,W,1,07,1.17,282.4,M,-32.0,M,,*5E$
$GPGGA,024529.000,4458.6132,N,09311.0799,W,1,07,1.16,282.3,M,-32.0,M,,*56$
$GPGGA,024525.000,4458.6131,N,09311.0803,W,1,07,1.16,282.3,M,-32.0,M,,*55$
$GPGGA,024527.000,4458.6131,N,09311.0801,W,1,07,1.16,282.3,M,-32.0,M,,*55$
$GPGGA,024530.000,4458.6133,N,09311.0798,W,1,07,1.16,282.3,M,-32.0,M,,*5E$
$GPGGA,024522.000,4458.6132,N,09311.0804,W,1,07,1.16,282.3,M,-32.0,M,,*56$
$GPGGA,024524.000,4458.6131,N,09311.0804,W,1,07,1.16,282.3,M,-32.0,M,,*53$
$GPGGA,024528.000,4458.6131,N,09311.0801,W,1,07,1.16,282.3,M,-32.0,M,,*5A$
$GPGGA,024531.000,4458.6133,N,09311.0796,W,1,07,1.16,282.3,M,-32.0,M,,*51$
M-^?M-^?M-^?M-^?M-^?M-^?M-^?M-^?M-^?M-^?M-^?M-^?M-^?M-^?M-^?M-^?M-^?M-^?M-^?M-^?M-^?M-^?M-^?M-^?M-^?M-^?M-^?M-^?^L$GPGGA,024523.000,4458.6132,N,09311.0804,W,1,07,1.16,282.3,M,-32.0,M,,*57$
$GPGGA,024526.000,4458.6131,N,09311.0802,W,1,07,1.16,282.3,M,-32.0,M,,*57$
$GPGGA,024449.000,4458.6204,N,09311.0668,W,1,07,1.17,282.4,M,-32.0,M,,*5E$
$GPGGA,024532.000,4458.6134,N,09311.0795,W,1,07,1.16,282.3,M,-32.0,M,,*56$
M-^?M-^?M-^?M-^?M-^?M-^?M-^?^L$GPGGA,024529.000,4458.6132,N,09311.0799,W,1,07,1.16,282.3,M,-32.0,M,,*56$
$GPGGA,024525.000,4458.6131,N,09311.0803,W,1,07,1.16,282.3,M,-32.0,M,,*55$
$GPGGA,024533.000,4458.6134,N,09311.0793,W,1,07,1.16,282.3,M,-32.0,M,,*51$
$GPGGA,024527.000,4458.6131,N,09311.0801,W,1,07,1.16,282.3,M,-32.0,M,,*55$
$GPGGA,024530.000,4458.6133,N,09311.0798,W,1,07,1.16,282.3,M,-32.0,M,,*5E$
$GPGGA,024534.000,4458.6134,N,09311.0791,W,1,07,1.16,282.3,M,-32.0,M,,*54$
$GPGGA,024522.000,4458.6132,N,09311.0804,W,1,07,1.16,282.3,M,-32.0,M,,*56$
$GPGGA,024524.000,4458.6131,N,09311.0804,W,1,07,1.16,282.3,M,-32.0,M,,*53$
$GPGGA,024528.000,4458.6131,N,09311.0801,W,1,07,1.16,282.3,M,-32.0,M,,*5A$
$GPGGA,024531.000,4458.6133,N,09311.0796,W,1,07,1.16,282.3,M,-32.0,M,,*51$
$GPGGA,024535.000,4458.6134,N,09311.0789,W,1,07,1.16,282.3,M,-32.0,M,,*5C$
$GPGGA,024523.000,4458.6132,N,09311.0804,W,1,07,1.16,282.3,M,-32.0,M,,*57$
$GPGGA,024526.000,4458.6131,N,09311.0802,W,1,07,1.16,282.3,M,-32.0,M,,*57$
$GPGGA,024536.000,4458.6135,N,09311.0787,W,1,07,1.16,282.3,M,-32.0,M,,*50$
$GPGGA,024449.000,4458.6204,N,09311.0668,W,1,07,1.17,282.4,M,-32.0,M,,*5E$
$GPGGA,024532.000,4458.6134,N,09311.0795,W,1,07,1.16,282.3,M,-32.0,M,,*56$
$GPGGA,024529.000,4458.6132,N,09311.0799,W,1,07,1.16,282.3,M,-32.0,M,,*56$
$GPGGA,024537.000,4458.6135,N,09311.0785,W,1,07,1.16,282.3,M,-32.0,M,,*53$
$GPGGA,024525.000,4458.6131,N,09311.0803,W,1,07,1.16,282.3,M,-32.0,M,,*55$
$GPGGA,024533.000,4458.6134,N,09311.0793,W,1,07,1.16,282.3,M,-32.0,M,,*51$
$GPGGA,024527.000,4458.6131,N,09311.0801,W,1,07,1.16,282.3,M,-32.0,M,,*55$
$GPGGA,024538.000,4458.6136,N,09311.0783,W,1,07,1.16,282.3,M,-32.0,M,,*59$
$GPGGA,024530.000,4458.6133,N,09311.0798,W,1,07,1.16,282.3,M,-32.0,M,,*5E$
$GPGGA,024534.000,4458.6134,N,09311.0791,W,1,07,1.16,282.3,M,-32.0,M,,*54$
$GPGGA,024539.000,4458.6136,N,09311.0781,W,1,07,1.16,282.3,M,-32.0,M,,*5A$
$GPGGA,024522.000,4458.6132,N,09311.0804,W,1,07,1.16,282.3,M,-32.0,M,,*56$
$GPGGA,024524.000,4458.6131,N,09311.0804,W,1,07,1.16,282.3,M,-32.0,M,,*53$
$GPGGA,024540.000,4458.6137,N,09311.0780,W,1,07,1.16,282.3,M,-32.0,M,,*54$
$GPGGA,024528.000,4458.6131,N,09311.0801,W,1,07,1.16,282.3,M,-32.0,M,,*5A$
$GPGGA,024531.000,4458.6133,N,09311.0796,W,1,07,1.16,282.3,M,-32.0,M,,*51$
$GPGGA,024535.000,4458.6134,N,09311.0789,W,1,07,1.16,282.3,M,-32.0,M,,*5C$
$GPGGA,024523.000,4458.6132,N,09311.0804,W,1,07,1.16,282.3,M,-32.0,M,,*57$
$GPGGA,.6131,N,09311.0801,W,0.33,56.50,240521,,,A*48$
$GPGGA,024531.000,4458.6133,N,09311.0796,W,1,07,1.16,282.3,M,-32.0,M,,*51$
$GPGGA,024535.000,4458.6134,N,09311.0789,W,1,07,1.16,282.3,M,-32.0,M,,*5C$
$GPGGA,024548.000,4458.6141,N,09311.0771,W,1,07,1.16,282.3,M,-32.0,M,,*53$
$GPGGA,024523.000,4458.6132,N,09311.0804,W,1,07,1.16,282.3,M,-32.0,M,,*57$
$GPGGA,024531.000,4458.6133,N,09311.0796,W,1,07,1.16,282.3,M,-32.0,M,,*51$
$GPGGA,024535.000,4458.6134,N,09311.0789,W,1,07,1.16,282.3,M,-32.0,M,,*5C$
$GPGGA,024548.000,4458.6141,N,09311.0771,W,1,07,1.16,282.3,M,-32.0,M,,*53$
$GPGGA,024549.000,4458.6141,N,09311.0770,W,1,07,1.16,282.3,M,-32.0,M,,*53$
$GPGGA,024523.000,4458.6132,N,09311.0804,W,1,07,1.16,282.3,M,-32.0,M,,*57$
$GPGGA,024531.000,4458.6133,N,09311.0796,W,1,07,1.16,282.3,M,-32.0,M,,*51$
$GPGGA,024535.000,4458.6134,N,09311.0789,W,1,07,1.16,282.3,M,-32.0,M,,*5C$
$GPGGA,024550.000,4458.6141,N,09311.0769,W,1,07,1.16,282.3,M,-32.0,M,,*53$
$GPGGA,024548.000,4458.6141,N,09311.0771,W,1,07,1.16,282.3,M,-32.0,M,,*53$
$GPGGA,024549.000,4458.6141,N,09311.0770,W,1,07,1.16,282.3,M,-32.0,M,,*53$
$GPGGA,024551.000,4458.6141,N,09311.0767,W,1,07,1.16,282.3,M,-32.0,M,,*5C$
$GPGGA,024523.000,4458.6132,N,09311.0804,W,1,07,1.16,282.3,M,-32.0,M,,*57$
$GPGGA,024531.000,4458.6133,N,09311.0796,W,1,07,1.16,282.3,M,-32.0,M,,*51$
$GPGGA,024535.000,4458.6134,N,09311.0789,W,1,07,1.16,282.3,M,-32.0,M,,*5C$
$GPGGA,024550.000,4458.6141,N,09311.0769,W,1,07,1.16,282.3,M,-32.0,M,,*53$
$GPGGA,024548.000,4458.6141,N,09311.0771,W,1,07,1.16,282.3,M,-32.0,M,,*53$
$GPGGA,024552.000,4458.6142,N,09311.0766,W,1,07,1.16,282.3,M,-32.0,M,,*5D$
$GPGGA,024549.000,4458.6141,N,09311.0770,W,1,07,1.16,282.3,M,-32.0,M,,*53$
$GPGGA,024553.000,4458.6142,N,09311.0764,W,1,07,1.16,282.3,M,-32.0,M,,*5E$
$GPGGA,024551.000,4458.6141,N,09311.0767,W,1,07,1.16,282.3,M,-32.0,M,,*5C$
$GPGGA,024523.000,4458.6132,N,09311.0804,W,1,07,1.16,282.3,M,-32.0,M,,*57$
$GPGGA,024531.000,4458.6133,N,09311.0796,W,1,07,1.16,282.3,M,-32.0,M,,*51$
$GPGGA,024535.000,4458.6134,N,09311.0789,W,1,07,1.16,282.3,M,-32.0,M,,*5C$
$GPGGA,024550.000,4458.6141,N,09311.0769,W,1,07,1.16,282.3,M,-32.0,M,,*53$
$GPGGA,024554.000,4458.6142,N,09311.0762,W,1,07,1.16,282.3,M,-32.0,M,,*5F$
$GPGGA,024548.000,4458.6141,N,09311.0771,W,1,07,1.16,282.3,M,-32.0,M,,*53$
$GPGGA,024552.000,4458.6142,N,09311.0766,W,1,07,1.16,282.3,M,-32.0,M,,*5D$
$GPGGA,024549.000,4458.6141,N,09311.0770,W,1,07,1.16,282.3,M,-32.0,M,,*53$
$GPGGA,024555.000,4458.6143,N,09311.0761,W,1,07,1.16,282.3,M,-32.0,M,,*5C$
$GPGGA,024553.000,4458.6142,N,09311.0764,W,1,07,1.16,282.3,M,-32.0,M,,*5E$
$GPGGA,024551.000,4458.6141,N,09311.0767,W,1,07,1.16,282.3,M,-32.0,M,,*5C$
$GPGGA,024556.000,4458.6143,N,09311.0759,W,1,07,1.16,282.3,M,-32.0,M,,*54$
$GPGGA,024523.000,4458.6132,N,09311.0804,W,1,07,1.16,282.3,M,-32.0,M,,*57$
$GPGGA,024531.000,4458.6133,N,09311.0796,W,1,07,1.16,282.3,M,-32.0,M,,*51$
$GPGGA,024535.000,4458.6134,N,09311.0789,W,1,07,1.16,282.3,M,-32.0,M,,*5C$
$GPGGA,024550.000,4458.6141,N,09311.0769,W,1,07,1.16,282.3,M,-32.0,M,,*53$
$GPGGA,024554.000,4458.6142,N,09311.0762,W,1,07,1.16,282.3,M,-32.0,M,,*5F$
$GPGGA,024557.000,4458.6143,N,09311.0758,W,1,06,1.40,282.3,M,-32.0,M,,*56$
$GPGGA,024548.000,4458.6141,N,09311.0771,W,1,07,1.16,282.3,M,-32.0,M,,*53$
$GPGGA,024552.000,4458.6142,N,09311.0766,W,1,07,1.16,282.3,M,-32.0,M,,*5D$
$GPGGA,024549.000,4458.6141,N,09311.0770,W,1,07,1.16,282.3,M,-32.0,M,,*53$
$GPGGA,024558.000,4458.6144,N,09311.0758,W,1,06,1.40,282.3,M,-32.0,M,,*5E$
$GPGGA,024555.000,4458.6143,N,09311.0761,W,1,07,1.16,282.3,M,-32.0,M,,*5C$
$GPGGA,024559.000,4458.6144,N,09311.0758,W,1,06,1.40,282.3,M,-32.0,M,,*5F$
M-^?M-^?M-^?M-^?M-^?M-^?M-^?M-^?M-^?M-^?M-^?M-^?M-^?M-^?M-^?M-^?M-^?M-^?M-^?M-^?M-^?M-^?M-^?M-^?M-^?M-^?M-^?M-^?^L$GPGGA,024553.000,4458.6142,N,09311.0764,W,1,07,1.16,282.3,M,-32.0,M,,*5E$
$GPGGA,024551.000,4458.6141,N,09311.0767,W,1,07,1.16,282.3,M,-32.0,M,,*5C$
$GPGGA,024556.000,4458.6143,N,09311.0759,W,1,07,1.16,282.3,M,-32.0,M,,*54$
$GPGGA,024600.000,4458.6144,N,09311.0758,W,1,06,1.65,282.3,M,-32.0,M,,*57$
$GPGGA,024523.000,4458.6132,N,09311.0804,W,1,07,1.16,282.3,M,-32.0,M,,*57$
$GPGGA,024531.000,4458.6133,N,09311.0796,W,1,07,1.16,282.3,M,-32.0,M,,*51$
$GPGGA,024535.000,4458.6134,N,09311.0789,W,1,07,1.16,282.3,M,-32.0,M,,*5C$
$GPGGA,024550.000,4458.6141,N,09311.0769,W,1,07,1.16,282.3,M,-32.0,M,,*53$
$GPGGA,024554.000,4458.6142,N,09311.0762,W,1,07,1.16,282.3,M,-32.0,M,,*5F$
$GPGGA,024557.000,4458.6143,N,09311.0758,W,1,06,1.40,282.3,M,-32.0,M,,*56$
$GPGGA,024601.000,4458.6144,N,09311.0758,W,1,06,1.65,282.3,M,-32.0,M,,*56$
$GPGGA,024548.000,4458.6141,N,09311.0771,W,1,07,1.16,282.3,M,-32.0,M,,*53$
M-u>$GPGGA,024552.000,4458.6142,N,09311.0766,W,1,07,1.16,282.3,M,-32.0,M,,*5D$
M-u>$GPGGA,024602.000,4458.6144,N,09311.0757,W,1,06,1.40,282.3,M,-32.0,M,,*5D$
$GPGGA,024549.000,4458.6141,N,09311.0770,W,1,07,1.16,282.3,M,-32.0,M,,*53$
$GPGGA,024558.000,4458.6144,N,09311.0758,W,1,06,1.40,282.3,M,-32.0,M,,*5E$
$GPGGA,024555.000,4458.6143,N,09311.0761,W,1,07,1.16,282.3,M,-32.0,M,,*5C$
$GPGGA,024603.000,4458.6144,N,09311.0757,W,1,06,1.40,282.3,M,-32.0,M,,*5C$
$GPGGA,024559.000,4458.6144,N,09311.0758,W,1,06,1.40,282.3,M,-32.0,M,,*5F$
$GPGGA,024604.000,4458.6143,N,09311.0756,W,1,06,1.40,282.3,M,-32.0,M,,*5D$
M-^?M-^?M-^?M-^?M-^?M-^?M-^?M-^?M-^?M-^?M-^?M-^?M-^?M-^?M-^?M-^?M-^?M-^?M-^?M-^?M-^?M-^?M-^?M-^?M-^?M-^?M-^?M-^?^L$GPGGA,024553.000,4458.6142,N,09311.0764,W,1,07,1.16,282.3,M,-32.0,M,,*5E$
$GPGGA,024551.000,4458.6141,N,09311.0767,W,1,07,1.16,282.3,M,-32.0,M,,*5C$
$GPGGA,024556.000,4458.6143,N,09311.0759,W,1,07,1.16,282.3,M,-32.0,M,,*54$
$GPGGA,024605.000,4458.6143,N,09311.0756,W,1,06,1.40,282.3,M,-32.0,M,,*5C$
$GPGGA,024600.000,4458.6144,N,09311.0758,W,1,06,1.65,282.3,M,-32.0,M,,*57$
$GPGGA,024523.000,4458.6132,N,09311.0804,W,1,07,1.16,282.3,M,-32.0,M,,*57$
$GPGGA,024531.000,4458.6133,N,09311.0796,W,1,07,1.16,282.3,M,-32.0,M,,*51$
$GPGGA,024535.000,4458.6134,N,09311.0789,W,1,07,1.16,282.3,M,-32.0,M,,*5C$
$GPGGA,024606.000,4458.6142,N,09311.0755,W,1,06,1.40,282.3,M,-32.0,M,,*5D$
$GPGGA,024550.000,4458.6141,N,09311.0769,W,1,07,1.16,282.3,M,-32.0,M,,*53$
$GPGGA,024554.000,4458.6142,N,09311.0762,W,1,07,1.16,282.3,M,-32.0,M,,*5F$
$GPGGA,024557.000,4458.6143,N,09311.0758,W,1,06,1.40,282.3,M,-32.0,M,,*56$
$GPGGA,024601.000,4458.6144,N,09311.0758,W,1,06,1.65,282.3,M,-32.0,M,,*56$
$GPGGA,024554.000,4458.6142,N,09311.0762,W,1,07,1.16,282.3,M,-32.0,M,,*5F$
$GPGGA,024557.000,4458.6143,N,09311.0758,W,1,06,1.40,282.3,M,-32.0,M,,*56$
$GPGGA,024601.000,4458.6144,N,09311.0758,W,1,06,1.65,282.3,M,-32.0,M,,*56$
$GPGGA,024614.000,4458.6138,N,09311.0751,W,1,07,1.18,282.3,M,-32.0,M,,*5B$
$GPGGA,024554.000,4458.6142,N,09311.0762,W,1,07,1.16,282.3,M,-32.0,M,,*5F$
=M-3M-^WM-!<M-]8M-X9M-^PM-`$GPGGA,024557.000,4458.6143,N,09311.0758,W,1,06,1.40,282.3,M,-32.0,M,,*56$
=M-3M-^WM-!<M-]8M-X9M-^PM-`$GPGGA,024601.000,4458.6144,N,09311.0758,W,1,06,1.65,282.3,M,-32.0,M,,*56$
=M-3M-^WM-!<M-]8M-X9M-^PM-`$GPGGA,024615.000,4458.6138,N,09311.0750,W,1,07,1.18,282.3,M,-32.0,M,,*5B$
$GPGGA,024614.000,4458.6138,N,09311.0751,W,1,07,1.18,282.3,M,-32.0,M,,*5B$
$GPGGA,024554.000,4458.6142,N,09311.0762,W,1,07,1.16,282.3,M,-32.0,M,,*5F$
$GPGGA,024616.000,4458.6138,N,09311.0750,W,1,07,1.18,282.3,M,-32.0,M,,*58$
$GPGGA,024557.000,4458.6143,N,09311.0758,W,1,06,1.40,282.3,M,-32.0,M,,*56$
$GPGGA,024601.000,4458.6144,N,09311.0758,W,1,06,1.65,282.3,M,-32.0,M,,*56$
$GPGGA,024615.000,4458.6138,N,09311.0750,W,1,07,1.18,282.3,M,-32.0,M,,*5B$
$GPGGA,024614.000,4458.6138,N,09311.0751,W,1,07,1.18,282.3,M,-32.0,M,,*5B$
$GPGGA,024617.000,4458.6137,N,09311.0749,W,1,07,1.18,282.3,M,-32.0,M,,*5E$
$GPGGA,024554.000,4458.6142,N,09311.0762,W,1,07,1.16,282.3,M,-32.0,M,,*5F$
$GPGGA,024616.000,4458.6138,N,09311.0750,W,1,07,1.18,282.3,M,-32.0,M,,*58$
$GPGGA,024618.000,4458.6137,N,09311.0748,W,1,06,1.21,282.3,M,-32.0,M,,*5B$
$GPGGA,024557.000,4458.6143,N,09311.0758,W,1,06,1.40,282.3,M,-32.0,M,,*56$
$GPGGA,024601.000,4458.6144,N,09311.0758,W,1,06,1.65,282.3,M,-32.0,M,,*56$
$GPGGA,024615.000,4458.6138,N,09311.0750,W,1,07,1.18,282.3,M,-32.0,M,,*5B$
$GPGGA,024614.000,4458.6138,N,09311.0751,W,1,07,1.18,282.3,M,-32.0,M,,*5B$
$GPGGA,024619.000,4458.6137,N,09311.0746,W,1,06,1.22,282.3,M,-32.0,M,,*57$
$GPGGA,024617.000,4458.6137,N,09311.0749,W,1,07,1.18,282.3,M,-32.0,M,,*5E$
$GPGGA,024620.000,4458.6136,N,09311.0745,W,1,06,1.21,282.3,M,-32.0,M,,*5C$
$GPGGA,024554.000,4458.6142,N,09311.0762,W,1,07,1.16,282.3,M,-32.0,M,,*5F$
$GPGGA,024616.000,4458.6138,N,09311.0750,W,1,07,1.18,282.3,M,-32.0,M,,*58$
$GPGGA,024618.000,4458.6137,N,09311.0748,W,1,06,1.21,282.3,M,-32.0,M,,*5B$
sM-F]^^M-}M-W$GPGGA,024557.000,4458.6143,N,09311.0758,W,1,06,1.40,282.3,M,-32.0,M,,*56$
^^M-}M-W$GPGGA,024601.000,4458.6144,N,09311.0758,W,1,06,1.65,282.3,M,-32.0,M,,*56$
^^M-}M-W$GPGGA,024621.000,4458.6135,N,09311.0744,W,1,07,1.18,282.3,M,-32.0,M,,*54$
$GPGGA,024615.000,4458.6138,N,09311.0750,W,1,07,1.18,282.3,M,-32.0,M,,*5B$
$GPGGA,024614.000,4458.6138,N,09311.0751,W,1,07,1.18,282.3,M,-32.0,M,,*5B$
$GPGGA,024619.000,4458.6137,N,09311.0746,W,1,06,1.22,282.3,M,-32.0,M,,*57$
$GPGGA,024622.000,4458.6134,N,09311.0743,W,1,07,1.19,282.3,M,-32.0,M,,*50$
$GPGGA,024617.000,4458.6137,N,09311.0749,W,1,07,1.18,282.3,M,-32.0,M,,*5E$
$GPGGA,024623.000,4458.6133,N,09311.0742,W,1,07,1.18,282.3,M,-32.0,M,,*56$
$GPGGA,024620.000,4458.6136,N,09311.0745,W,1,06,1.21,282.3,M,-32.0,M,,*5C$
$GPGGA,024554.000,4458.6142,N,09311.0762,W,1,07,1.16,282.3,M,-32.0,M,,*5F$
$GPGGA,024616.000,4458.6138,N,09311.0750,W,1,07,1.18,282.3,M,-32.0,M,,*58$
$GPGGA,024618.000,4458.6137,N,09311.0748,W,1,06,1.21,282.3,M,-32.0,M,,*5B$
$GPGGA,024624.000,4458.6132,N,09311.0741,W,1,07,1.18,282.3,M,-32.0,M,,*53$
$GPGGA,024557.000,4458.6143,N,09311.0758,W,1,06,1.40,282.3,M,-32.0,M,,*56$
$GPGGA,024601.000,4458.6144,N,09311.0758,W,1,06,1.65,282.3,M,-32.0,M,,*56$
$GPGGA,024621.000,4458.6135,N,09311.0744,W,1,07,1.18,282.3,M,-32.0,M,,*54$
$GPGGA,024625.000,4458.6131,N,09311.0739,W,1,07,1.18,282.3,M,-32.0,M,,*5E$
M-^?M-^?M-^?M-^?M-^?M-^?M-^?M-^?M-^?^L$GPGGA,024615.000,4458.6138,N,09311.0750,W,1,07,1.18,282.3,M,-32.0,M,,*5B$
$GPGGA,024614.000,4458.6138,N,09311.0751,W,1,07,1.18,282.3,M,-32.0,M,,*5B$
$GPGGA,024619.000,4458.6137,N,09311.0746,W,1,06,1.22,282.3,M,-32.0,M,,*57$
$GPGGA,024622.000,4458.6134,N,09311.0743,W,1,07,1.19,282.3,M,-32.0,M,,*50$
$GPGGA,024626.000,4458.6130,N,09311.0738,W,1,07,1.18,282.3,M,-32.0,M,,*5D$
$GPGGA,024617.000,4458.6137,N,09311.0749,W,1,07,1.18,282.3,M,-32.0,M,,*5E$
$GPGGA,024627.000,4458.6129,N,09311.0737,W,1,07,1.18,282.3,M,-32.0,M,,*5B$
$GPGGA,024623.000,4458.6133,N,09311.0742,W,1,07,1.18,282.3,M,-32.0,M,,*56$
$GPGGA,024620.000,4458.6136,N,09311.0745,W,1,06,1.21,282.3,M,-32.0,M,,*5C$
$GPGGA,024628.000,4458.6127,N,09311.0735,W,1,06,1.22,282.3,M,-32.0,M,,*50$
$GPGGA,024554.000,4458.6142,N,09311.0762,W,1,07,1.16,282.3,M,-32.0,M,,*5F$
$GPGGA,024616.000,4458.6138,N,09311.0750,W,1,07,1.18,282.3,M,-32.0,M,,*58$
$GPGGA,024618.000,4458.6137,N,09311.0748,W,1,06,1.21,282.3,M,-32.0,M,,*5B$
$GPGGA,024624.000,4458.6132,N,09311.0741,W,1,07,1.18,282.3,M,-32.0,M,,*53$
$GPGGA,024629.000,4458.6127,N,09311.0734,W,1,06,1.22,282.3,M,-32.0,M,,*50$
$GPGGA,024557.000,4458.6143,N,09311.0758,W,1,06,1.40,282.3,M,-32.0,M,,*56$
$GPGGA,024601.000,4458.6144,N,09311.0758,W,1,06,1.65,282.3,M,-32.0,M,,*56$
$GPGGA,024621.000,4458.6135,N,09311.0744,W,1,07,1.18,282.3,M,-32.0,M,,*54$
$GPGGA,024630.000,4458.6126,N,09311.0732,W,1,06,1.22,282.3,M,-32.0,M,,*5F$
$GPGGA,024625.000,4458.6131,N,09311.0739,W,1,07,1.18,282.3,M,-32.0,M,,*5E$
$GPGGA,024615.000,4458.6138,N,09311.0750,W,1,07,1.18,282.3,M,-32.0,M,,*5B$
$GPGGA,024614.000,4458.6138,N,09311.0751,W,1,07,1.18,282.3,M,-32.0,M,,*5B$
$GPGGA,024619.000,4458.6137,N,09311.0746,W,1,06,1.22,282.3,M,-32.0,M,,*57$
$GPGGA,024631.000,4458.6126,N,09311.0731,W,1,06,1.22,282.3,M,-32.0,M,,*5D$
$GPGGA,024622.000,4458.6134,N,09311.0743,W,1,07,1.19,282.3,M,-32.0,M,,*50$
$GPGGA,024626.000,4458.6130,N,09311.0738,W,1,07,1.18,282.3,M,-32.0,M,,*5D$
$GPGGA,024632.000,4458.6125,N,09311.0729,W,1,06,1.22,282.3,M,-32.0,M,,*54$
$GPGGA,024617.000,4458.6137,N,09311.0749,W,1,07,1.18,282.3,M,-32.0,M,,*5E$
&M-qM-XM-@?$GPGGA,024639.000,4458.6124,N,09311.0718,W,1,05,1.42,282.3,M,-32.0,M,,*59$
$GPGGA,024632.000,4458.6125,N,09311.0729,W,1,06,1.22,282.3,M,-32.0,M,,*54$
$GPGGA,024617.000,4458.6137,N,09311.0749,W,1,07,1.18,282.3,M,-32.0,M,,*5E$
$GPGGA,024640.000,4458.6123,N,09311.0716,W,1,05,1.42,282.3,M,-32.0,M,,*5E$
$GPGGA,024639.000,4458.6124,N,09311.0718,W,1,05,1.42,282.3,M,-32.0,M,,*59$
$GPGGA,024632.000,4458.6125,N,09311.0729,W,1,06,1.22,282.3,M,-32.0,M,,*54$
$GPGGA,024641.000,4458.6130,N,09311.0698,W,1,05,1.42,282.3,M,-32.0,M,,*5A$
$GPGGA,024617.000,4458.6137,N,09311.0749,W,1,07,1.18,282.3,M,-32.0,M,,*5E$
$GPGGA,024640.000,4458.6123,N,09311.0716,W,1,05,1.42,282.3,M,-32.0,M,,*5E$
$GPGGA,024639.000,4458.6124,N,09311.0718,W,1,05,1.42,282.3,M,-32.0,M,,*59$
$GPGGA,024642.000,4458.6137,N,09311.0680,W,1,05,1.43,282.3,M,-32.0,M,,*56$
$GPGGA,024632.000,4458.6125,N,09311.0729,W,1,06,1.22,282.3,M,-32.0,M,,*54$
$GPGGA,024641.000,4458.6130,N,09311.0698,W,1,05,1.42,282.3,M,-32.0,M,,*5A$
$GPGGA,024643.000,4458.6151,N,09311.0656,W,1,05,1.42,282.3,M,-32.0,M,,*5D$
$GPGGA,024617.000,4458.6137,N,09311.0749,W,1,07,1.18,282.3,M,-32.0,M,,*5E$
$GPGGA,024640.000,4458.6123,N,09311.0716,W,1,05,1.42,282.3,M,-32.0,M,,*5E$
$GPGGA,024639.000,4458.6124,N,09311.0718,W,1,05,1.42,282.3,M,-32.0,M,,*59$
$GPGGA,024644.000,4458.6160,N,09311.0639,W,1,05,1.43,282.3,M,-32.0,M,,*50$
$GPGGA,024642.000,4458.6137,N,09311.0680,W,1,05,1.43,282.3,M,-32.0,M,,*56$
^AM-^]t=M-3M-^WM-!<M-]8M-X9M-^PM-`$GPGGA,024645.000,4458.6162,N,09311.0627,W,1,05,1.43,282.3,M,-32.0,M,,*5C$
$GPGGA,024632.000,4458.6125,N,09311.0729,W,1,06,1.22,282.3,M,-32.0,M,,*54$
$GPGGA,024641.000,4458.6130,N,09311.0698,W,1,05,1.42,282.3,M,-32.0,M,,*5A$
$GPGGA,024643.000,4458.6151,N,09311.0656,W,1,05,1.42,282.3,M,-32.0,M,,*5D$
$GPGGA,024646.000,4458.6167,N,09311.0608,W,1,05,1.42,282.3,M,-32.0,M,,*56$
$GPGGA,024617.000,4458.6137,N,09311.0749,W,1,07,1.18,282.3,M,-32.0,M,,*5E$
$GPGGA,024640.000,4458.6123,N,09311.0716,W,1,05,1.42,282.3,M,-32.0,M,,*5E$
$GPGGA,024639.000,4458.6124,N,09311.0718,W,1,05,1.42,282.3,M,-32.0,M,,*59$
$GPGGA,024644.000,4458.6160,N,09311.0639,W,1,05,1.43,282.3,M,-32.0,M,,*50$
$GPGGA,024647.000,4458.6176,N,09311.0587,W,1,05,1.42,282.3,M,-32.0,M,,*53$
$GPGGA,024642.000,4458.6137,N,09311.0680,W,1,05,1.43,282.3,M,-32.0,M,,*56$
$GPGGA,024648.000,4458.6183,N,09311.0563,W,1,05,1.42,282.3,M,-32.0,M,,*5C$
$GPGGA,024645.000,4458.6162,N,09311.0627,W,1,05,1.43,282.3,M,-32.0,M,,*5C$
$GPGGA,024632.000,4458.6125,N,09311.0729,W,1,06,1.22,282.3,M,-32.0,M,,*54$
$GPGGA,024641.000,4458.6130,N,09311.0698,W,1,05,1.42,282.3,M,-32.0,M,,*5A$
$GPGGA,024643.000,4458.6151,N,09311.0656,W,1,05,1.42,282.3,M,-32.0,M,,*5D$
$GPGGA,024649.000,4458.6191,N,09311.0542,W,1,05,1.42,282.3,M,-32.0,M,,*5D$
$GPGGA,024646.000,4458.6167,N,09311.0608,W,1,05,1.42,282.3,M,-32.0,M,,*56$
$GPGGA,024617.000,4458.6137,N,09311.0749,W,1,07,1.18,282.3,M,-32.0,M,,*5E$
$GPGGA,024650.000,4458.6196,N,09311.0525,W,1,05,1.42,282.3,M,-32.0,M,,*53$
$GPGGA,024640.000,4458.6123,N,09311.0716,W,1,05,1.42,282.3,M,-32.0,M,,*5E$
$GPGGA,024639.000,4458.6124,N,09311.0718,W,1,05,1.42,282.3,M,-32.0,M,,*59$
$GPGGA,024644.000,4458.6160,N,09311.0639,W,1,05,1.43,282.3,M,-32.0,M,,*50$
^^M-}M-W$GPGGA,024647.000,4458.6176,N,09311.0587,W,1,05,1.42,282.3,M,-32.0,M,,*53$
^^M-}M-W$GPGGA,024651.000,4458.6203,N,09311.0506,W,1,05,1.42,282.3,M,-32.0,M,,*5C$
$GPGGA,024642.000,4458.6137,N,09311.0680,W,1,05,1.43,282.3,M,-32.0,M,,*56$
$GPGGA,024652.000,4458.6208,N,09311.0489,W,1,05,1.43,282.3,M,-32.0,M,,*53$
$GPGGA,024648.000,4458.6183,N,09311.0563,W,1,05,1.42,282.3,M,-32.0,M,,*5C$
$GPGGA,024645.000,4458.6162,N,09311.0627,W,1,05,1.43,282.3,M,-32.0,M,,*5C$
$GPGGA,024653.000,4458.6215,N,09311.0471,W,1,05,1.43,282.3,M,-32.0,M,,*59$
$GPGGA,024632.000,4458.6125,N,09311.0729,W,1,06,1.22,282.3,M,-32.0,M,,*54$
$GPGGA,024641.000,4458.6130,N,09311.0698,W,1,05,1.42,282.3,M,-32.0,M,,*5A$
$GPGGA,024643.000,4458.6151,N,09311.0656,W,1,05,1.42,282.3,M,-32.0,M,,*5D$
$GPGGA,024649.000,4458.6191,N,09311.0542,W,1,05,1.42,282.3,M,-32.0,M,,*5D$
$GPGGA,024654.000,4458.6219,N,09311.0455,W,1,05,1.43,282.3,M,-32.0,M,,*54$
$GPGGA,024646.000,4458.6167,N,09311.0608,W,1,05,1.42,282.3,M,-32.0,M,,*56$
$GPGGA,024617.000,4458.6137,N,09311.0749,W,1,07,1.18,282.3,M,-32.0,M,,*5E$
$GPGGA,024650.000,4458.6196,N,09311.0525,W,1,05,1.42,282.3,M,-32.0,M,,*53$
$GPGGA,024655.000,4458.6223,N,09311.0440,W,1,05,1.42,282.3,M,-32.0,M,,*59$
$GPGGA,024640.000,4458.6123,N,09311.0716,W,1,05,1.42,282.3,M,-32.0,M,,*5E$
$GPGGA,024639.000,4458.6124,N,09311.0718,W,1,05,1.42,282.3,M,-32.0,M,,*59$
$GPGGA,024644.000,4458.6160,N,09311.0639,W,1,05,1.43,282.3,M,-32.0,M,,*50$
$GPGGA,024656.000,4458.6224,N,09311.0438,W,1,05,1.42,282.3,M,-32.0,M,,*52$
$GPGGA,024647.000,4458.6176,N,09311.0587,W,1,05,1.42,282.3,M,-32.0,M,,*53$
$GPGGA,024651.000,4458.6203,N,09311.0506,W,1,05,1.42,282.3,M,-32.0,M,,*5C$
$GPGGA,024657.000,4458.6224,N,09311.0436,W,1,05,1.43,282.3,M,-32.0,M,,*5C$
$GPGGA,024642.000,4458.6137,N,09311.0680,W,1,05,1.43,282.3,M,-32.0,M,,*56$
$GPGGA,024652.000,4458.6208,N,09311.0489,W,1,05,1.43,282.3,M,-32.0,M,,*53$
$GPGGA,024657.000,4458.6224,N,09311.0436,W,1,05,1.43,282.3,M,-32.0,M,,*5C$
$GPGGA,024642.000,4458.6137,N,09311.0680,W,1,05,1.43,282.3,M,-32.0,M,,*56$
$GPGGA,024705.000,4458.6213,N,09311.0471,W,1,06,1.20,282.4,M,-32.0,M,,*5C$
$GPGGA,024652.000,4458.6208,N,09311.0489,W,1,05,1.43,282.3,M,-32.0,M,,*53$
$GPGGA,024657.000,4458.6224,N,09311.0436,W,1,05,1.43,282.3,M,-32.0,M,,*5C$
$GPGGA,024642.000,4458.6137,N,09311.0680,W,1,05,1.43,282.3,M,-32.0,M,,*56$
$GPGGA,024706.000,4458.6213,N,09311.0469,W,1,06,1.32,282.4,M,-32.0,M,,*55$
$GPGGA,024705.000,4458.6213,N,09311.0471,W,1,06,1.20,282.4,M,-32.0,M,,*5C$
$GPGGA,024652.000,4458.6208,N,09311.0489,W,1,05,1.43,282.3,M,-32.0,M,,*53$
$GPGGA,024707.000,4458.6214,N,09311.0467,W,1,06,1.32,282.4,M,-32.0,M,,*5D$
$GPGGA,024657.000,4458.6224,N,09311.0436,W,1,05,1.43,282.3,M,-32.0,M,,*5C$
$GPGGA,024642.000,4458.6137,N,09311.0680,W,1,05,1.43,282.3,M,-32.0,M,,*56$
$GPGGA,024706.000,4458.6213,N,09311.0469,W,1,06,1.32,282.4,M,-32.0,M,,*55$
$GPGGA,024708.000,4458.6215,N,09311.0465,W,1,06,1.32,282.4,M,-32.0,M,,*51$
$GPGGA,024705.000,4458.6213,N,09311.0471,W,1,06,1.20,282.4,M,-32.0,M,,*5C$
$GPGGA,024652.000,4458.6208,N,09311.0489,W,1,05,1.43,282.3,M,-32.0,M,,*53$
&M-qM-XM-@?$GPGGA,024707.000,4458.6214,N,09311.0467,W,1,06,1.32,282.4,M,-32.0,M,,*5D$
&M-qM-XM-@?$GPGGA,024709.000,4458.6216,N,09311.0463,W,1,06,1.32,282.4,M,-32.0,M,,*55$
$GPGGA,024657.000,4458.6224,N,09311.0436,W,1,05,1.43,282.3,M,-32.0,M,,*5C$
$GPGGA,024642.000,4458.6137,N,09311.0680,W,1,05,1.43,282.3,M,-32.0,M,,*56$
$GPGGA,024706.000,4458.6213,N,09311.0469,W,1,06,1.32,282.4,M,-32.0,M,,*55$
$GPGGA,024710.000,4458.6219,N,09311.0465,W,1,06,1.32,282.4,M,-32.0,M,,*54$
$GPGGA,024708.000,4458.6215,N,09311.0465,W,1,06,1.32,282.4,M,-32.0,M,,*51$
$GPGGA,024705.000,4458.6213,N,09311.0471,W,1,06,1.20,282.4,M,-32.0,M,,*5C$
$GPGGA,024652.000,4458.6208,N,09311.0489,W,1,05,1.43,282.3,M,-32.0,M,,*53$
$GPGGA,024711.000,4458.6223,N,09311.0467,W,1,06,1.32,282.4,M,-32.0,M,,*5E$
$GPGGA,024707.000,4458.6214,N,09311.0467,W,1,06,1.32,282.4,M,-32.0,M,,*5D$
$GPGGA,024709.000,4458.6216,N,09311.0463,W,1,06,1.32,282.4,M,-32.0,M,,*55$
$GPGGA,024712.000,4458.6224,N,09311.0468,W,1,06,1.32,282.4,M,-32.0,M,,*55$
M-^?M-^?M-^?M-^?M-^?M-^?M-^?M-^?M-^?M-^?M-^?M-^?M-^?M-^?M-^?M-^?M-^?M-^?M-^?M-^?M-^?M-^?M-^?M-^?M-^?M-^?M-^?M-^?^L$GPGGA,024657.000,4458.6224,N,09311.0436,W,1,05,1.43,282.3,M,-32.0,M,,*5C$
$GPGGA,024642.000,4458.6137,N,09311.0680,W,1,05,1.43,282.3,M,-32.0,M,,*56$
$GPGGA,024706.000,4458.6213,N,09311.0469,W,1,06,1.32,282.4,M,-32.0,M,,*55$
$GPGGA,024713.000,4458.6225,N,09311.0467,W,1,06,1.32,282.4,M,-32.0,M,,*5A$
$GPGGA,024710.000,4458.6219,N,09311.0465,W,1,06,1.32,282.4,M,-32.0,M,,*54$
$GPGGA,024708.000,4458.6215,N,09311.0465,W,1,06,1.32,282.4,M,-32.0,M,,*51$
$GPGGA,024705.000,4458.6213,N,09311.0471,W,1,06,1.20,282.4,M,-32.0,M,,*5C$
$GPGGA,024714.000,4458.6227,N,09311.0466,W,1,06,1.32,282.4,M,-32.0,M,,*5E$
$GPGGA,024652.000,4458.6208,N,09311.0489,W,1,05,1.43,282.3,M,-32.0,M,,*53$
$GPGGA,024711.000,4458.6223,N,09311.0467,W,1,06,1.32,282.4,M,-32.0,M,,*5E$
^AM-^]t=M-3M-^WM-!<M-]8M-X9M-^PM-`$GPGGA,024707.000,4458.6214,N,09311.0467,W,1,06,1.32,282.4,M,-32.0,M,,*5D$
=M-3M-^WM-!<M-]8M-X9M-^PM-`$GPGGA,024709.000,4458.6216,N,09311.0463,W,1,06,1.32,282.4,M,-32.0,M,,*55$
=M-3M-^WM-!<M-]8M-X9M-^PM-`$GPGGA,024715.000,4458.6232,N,09311.0474,W,1,06,1.32,282.4,M,-32.0,M,,*58$
$GPGGA,024712.000,4458.6224,N,09311.0468,W,1,06,1.32,282.4,M,-32.0,M,,*55$
$GPGGA,024716.000,4458.6240,N,09311.0485,W,1,06,1.32,282.4,M,-32.0,M,,*50$
$GPGGA,024657.000,4458.6224,N,09311.0436,W,1,05,1.43,282.3,M,-32.0,M,,*5C$
$GPGGA,024642.000,4458.6137,N,09311.0680,W,1,05,1.43,282.3,M,-32.0,M,,*56$
$GPGGA,024706.000,4458.6213,N,09311.0469,W,1,06,1.32,282.4,M,-32.0,M,,*55$
$GPGGA,024713.000,4458.6225,N,09311.0467,W,1,06,1.32,282.4,M,-32.0,M,,*5A$
$GPGGA,024717.000,4458.6245,N,09311.0492,W,1,06,1.32,282.4,M,-32.0,M,,*52$
$GPGGA,024710.000,4458.6219,N,09311.0465,W,1,06,1.32,282.4,M,-32.0,M,,*54$
$GPGGA,024708.000,4458.6215,N,09311.0465,W,1,06,1.32,282.4,M,-32.0,M,,*51$
$GPGGA,024718.000,4458.6251,N,09311.0498,W,1,06,1.32,282.4,M,-32.0,M,,*52$
YM-_^E M-7,M-z?$GPGGA,024707.000,4458.6214,N,09311.0467,W,1,06,1.32,282.4,M,-32.0,M,,*5D$
YM-_^E uM-^S^X^A^A^A@M-'$GPGGA,024709.000,4458.6216,N,09311.0463,W,1,06,1.32,282.4,M,-32.0,M,,*55$
YM-_^E uM-^S^X^A^A^A@M-'$GPGGA,024715.000,4458.6232,N,09311.0474,W,1,06,1.32,282.4,M,-32.0,M,,*58$
YM-_^E uM-^S^X^A^A^A@M-'$GPGGA,024719.000,4458.6255,N,09311.0505,W,1,06,1.32,282.4,M,-32.0,M,,*52$
$GPGGA,024712.000,4458.6224,N,09311.0468,W,1,06,1.32,282.4,M,-32.0,M,,*55$
$GPGGA,024716.000,4458.6240,N,09311.0485,W,1,06,1.32,282.4,M,-32.0,M,,*50$
$GPGGA,024720.000,4458.6257,N,09311.0505,W,1,06,1.32,282.4,M,-32.0,M,,*5A$
$GPGGA,024657.000,4458.6224,N,09311.0436,W,1,05,1.43,282.3,M,-32.0,M,,*5C$
$GPGGA,024642.000,4458.6137,N,09311.0680,W,1,05,1.43,282.3,M,-32.0,M,,*56$
^^M-}M-W$GPGGA,024706.000,4458.6213,N,09311.0469,W,1,06,1.32,282.4,M,-32.0,M,,*55$
^^M-}M-W$GPGGA,024721.000,4458.6258,N,09311.0505,W,1,06,1.45,282.4,M,-32.0,M,,*54$
$GPGGA,024713.000,4458.6225,N,09311.0467,W,1,06,1.32,282.4,M,-32.0,M,,*5A$
$GPGGA,024717.000,4458.6245,N,09311.0492,W,1,06,1.32,282.4,M,-32.0,M,,*52$
$GPGGA,024710.000,4458.6219,N,09311.0465,W,1,06,1.32,282.4,M,-32.0,M,,*54$
$GPGGA,024722.000,4458.6259,N,09311.0505,W,1,06,1.45,282.4,M,-32.0,M,,*56$
$GPGGA,024708.000,4458.6215,N,09311.0465,W,1,06,1.32,282.4,M,-32.0,M,,*51$
$GPGGA,024718.000,4458.6251,N,09311.0498,W,1,06,1.32,282.4,M,-32.0,M,,*52$
$GPGGA,024723.000,4458.6261,N,09311.0505,W,1,06,1.45,282.4,M,-32.0,M,,*5C$
$GPGGA,024707.000,4458.6214,N,09311.0467,W,1,06,1.32,282.4,M,-32.0,M,,*5D$
$GPGGA,024709.000,4458.6216,N,09311.0463,W,1,06,1.32,282.4,M,-32.0,M,,*55$
$GPGGA,024715.000,4458.6232,N,09311.0474,W,1,06,1.32,282.4,M,-32.0,M,,*58$
$GPGGA,024731.000,4458.6256,N,09311.0556,W,1,08,1.05,282.4,M,-32.0,M,,*57$
M-^?M-^?M-^?M-^?M-^?M-^?M-^?M-^?M-^?^L$GPGGA,024731.000,4458.6256,N,09311.0556,W,1,08,1.05,282.4,M,-32.0,M,,*57$
$GPGGA,024731.000,4458.6256,N,09311.0556,W,1,08,1.05,282.4,M,-32.0,M,,*57$
$GPGGA,024732.000,4458.6256,N,09311.0559,W,1,08,1.05,282.4,M,-32.0,M,,*5B$
$GPGGA,024731.000,4458.6256,N,09311.0556,W,1,08,1.05,282.4,M,-32.0,M,,*57$
$GPGGA,024732.000,4458.6256,N,09311.0559,W,1,08,1.05,282.4,M,-32.0,M,,*5B$
$GPGGA,024733.000,4458.6257,N,09311.0562,W,1,08,1.05,282.4,M,-32.0,M,,*53$
$GPGGA,024731.000,4458.6256,N,09311.0556,W,1,08,1.05,282.4,M,-32.0,M,,*57$
$GPGGA,024732.000,4458.6256,N,09311.0559,W,1,08,1.05,282.4,M,-32.0,M,,*5B$
$GPGGA,024733.000,4458.6257,N,09311.0562,W,1,08,1.05,282.4,M,-32.0,M,,*53$
$GPGGA,024734.000,4458.6258,N,09311.0563,W,1,08,1.05,282.4,M,-32.0,M,,*5A$
$GPGGA,024731.000,4458.6256,N,09311.0556,W,1,08,1.05,282.4,M,-32.0,M,,*57$
$GPGGA,024732.000,4458.6256,N,09311.0559,W,1,08,1.05,282.4,M,-32.0,M,,*5B$
$GPGGA,024733.000,4458.6257,N,09311.0562,W,1,08,1.05,282.4,M,-32.0,M,,*53$
$GPGGA,024735.000,4458.6258,N,09311.0564,W,1,08,1.05,282.4,M,-32.0,M,,*5C$
$GPGGA,024734.000,4458.6258,N,09311.0563,W,1,08,1.05,282.4,M,-32.0,M,,*5A$
$GPGGA,024731.000,4458.6256,N,09311.0556,W,1,08,1.05,282.4,M,-32.0,M,,*57$
$GPGGA,024732.000,4458.6256,N,09311.0559,W,1,08,1.05,282.4,M,-32.0,M,,*5B$
$GPGGA,024736.000,4458.6259,N,09311.0565,W,1,08,1.05,282.4,M,-32.0,M,,*5F$
$GPGGA,024733.000,4458.6257,N,09311.0562,W,1,08,1.05,282.4,M,-32.0,M,,*53$
$GPGGA,024735.000,4458.6258,N,09311.0564,W,1,08,1.05,282.4,M,-32.0,M,,*5C$
$GPGGA,024734.000,4458.6258,N,09311.0563,W,1,08,1.05,282.4,M,-32.0,M,,*5A$
$GPGGA,024737.000,4458.6260,N,09311.0566,W,1,07,1.06,282.4,M,-32.0,M,,*5B$
$GPGGA,024731.000,4458.6256,N,09311.0556,W,1,08,1.05,282.4,M,-32.0,M,,*57$
$GPGGA,024732.000,4458.6256,N,09311.0559,W,1,08,1.05,282.4,M,-32.0,M,,*5B$
$GPGGA,024736.000,4458.6259,N,09311.0565,W,1,08,1.05,282.4,M,-32.0,M,,*5F$
$GPGGA,024738.000,4458.6260,N,09311.0567,W,1,07,1.06,282.4,M,-32.0,M,,*55$
$GPGGA,024733.000,4458.6257,N,09311.0562,W,1,08,1.05,282.4,M,-32.0,M,,*53$
^]M-^AM-9&M-qM-XM-@?$GPGGA,024735.000,4458.6258,N,09311.0564,W,1,08,1.05,282.4,M,-32.0,M,,*5C$
&M-qM-XM-@?$GPGGA,024739.000,4458.6261,N,09311.0567,W,1,07,1.06,282.4,M,-32.0,M,,*55$
$GPGGA,024734.000,4458.6258,N,09311.0563,W,1,08,1.05,282.4,M,-32.0,M,,*5A$
$GPGGA,024737.000,4458.6260,N,09311.0566,W,1,07,1.06,282.4,M,-32.0,M,,*5B$
$GPGGA,024731.000,4458.6256,N,09311.0556,W,1,08,1.05,282.4,M,-32.0,M,,*57$
$GPGGA,024740.000,4458.6263,N,09311.0568,W,1,08,0.96,282.4,M,-32.0,M,,*51$
M-^?M-^?M-^?M-^?M-^?^L$GPGGA,024732.000,4458.6256,N,09311.0559,W,1,08,1.05,282.4,M,-32.0,M,,*5B$
$GPGGA,024736.000,4458.6259,N,09311.0565,W,1,08,1.05,282.4,M,-32.0,M,,*5F$
$GPGGA,024738.000,4458.6260,N,09311.0567,W,1,07,1.06,282.4,M,-32.0,M,,*55$
$GPGGA,024741.000,4458.6264,N,09311.0567,W,1,08,0.96,282.4,M,-32.0,M,,*58$
M-^?M-^?M-^?M-^?M-^?M-^?M-^?M-^?M-^?^L$GPGGA,024733.000,4458.6257,N,09311.0562,W,1,08,1.05,282.4,M,-32.0,M,,*53$
$GPGGA,024735.000,4458.6258,N,09311.0564,W,1,08,1.05,282.4,M,-32.0,M,,*5C$
$GPGGA,024739.000,4458.6261,N,09311.0567,W,1,07,1.06,282.4,M,-32.0,M,,*55$
$GPGGA,024742.000,4458.6265,N,09311.0567,W,1,08,0.96,282.4,M,-32.0,M,,*5A$
$GPGGA,024734.000,4458.6258,N,09311.0563,W,1,08,1.05,282.4,M,-32.0,M,,*5A$
$GPGGA,024737.000,4458.6260,N,09311.0566,W,1,07,1.06,282.4,M,-32.0,M,,*5B$
$GPGGA,024743.000,4458.6266,N,09311.0566,W,1,08,0.96,282.4,M,-32.0,M,,*59$
$GPGGA,024731.000,4458.6256,N,09311.0556,W,1,08,1.05,282.4,M,-32.0,M,,*57$
$GPGGA,024740.000,4458.6263,N,09311.0568,W,1,08,0.96,282.4,M,-32.0,M,,*51$
$GPGGA,024732.000,4458.6256,N,09311.0559,W,1,08,1.05,282.4,M,-32.0,M,,*5B$
$GPGGA,024744.000,4458.6267,N,09311.0566,W,1,08,0.96,282.4,M,-32.0,M,,*5F$
$GPGGA,024736.000,4458.6259,N,09311.0565,W,1,08,1.05,282.4,M,-32.0,M,,*5F$
$GPGGA,024738.000,4458.6260,N,09311.0567,W,1,07,1.06,282.4,M,-32.0,M,,*55$
^AM-^]t=M-3M-^WM-!<M-]8M-X9M-^PM-`$GPGGA,024741.000,4458.6264,N,09311.0567,W,1,08,0.96,282.4,M,-32.0,M,,*58$
=M-3M-^WM-!<M-]8M-X9M-^PM-`$GPGGA,024745.000,4458.6269,N,09311.0565,W,1,07,1.06,282.4,M,-32.0,M,,*54$
M-^?M-^?M-^?M-^?M-^?M-^?M-^?M-^?M-^?^L$GPGGA,024733.000,4458.6257,N,09311.0562,W,1,08,1.05,282.4,M,-32.0,M,,*53$
$GPGGA,024735.000,4458.6258,N,09311.0564,W,1,08,1.05,282.4,M,-32.0,M,,*5C$
$GPGGA,024739.000,4458.6261,N,09311.0567,W,1,07,1.06,282.4,M,-32.0,M,,*55$
$GPGGA,024742.000,4458.6265,N,09311.0567,W,1,08,0.96,282.4,M,-32.0,M,,*5A$
$GPGGA,024746.000,4458.6269,N,09311.0564,W,1,07,1.06,282.4,M,-32.0,M,,*56$
$GPGGA,024734.000,4458.6258,N,09311.0563,W,1,08,1.05,282.4,M,-32.0,M,,*5A$
$GPGGA,024737.000,4458.6260,N,09311.0566,W,1,07,1.06,282.4,M,-32.0,M,,*5B$
$GPGGA,024747.000,4458.6270,N,09311.0564,W,1,07,1.06,282.4,M,-32.0,M,,*5F$
$GPGGA,024743.000,4458.6266,N,09311.0566,W,1,08,0.96,282.4,M,-32.0,M,,*59$
$GPGGA,024731.000,4458.6256,N,09311.0556,W,1,08,1.05,282.4,M,-32.0,M,,*57$
$GPGGA,024740.000,4458.6263,N,09311.0568,W,1,08,0.96,282.4,M,-32.0,M,,*51$
$GPGGA,024748.000,4458.6270,N,09311.0564,W,1,08,0.96,282.4,M,-32.0,M,,*57$
$GPGGA,024732.000,4458.6256,N,09311.0559,W,1,08,1.05,282.4,M,-32.0,M,,*5B$
$GPGGA,024744.000,4458.6267,N,09311.0566,W,1,08,0.96,282.4,M,-32.0,M,,*5F$
$GPGGA,024749.000,4458.6270,N,09311.0564,W,1,08,0.96,282.4,M,-32.0,M,,*56$
M-^?M-^?M-^?M-^?M-^?M-^?M-^?M-^?M-^?M-^?M-^?M-^?M-^?M-^?M-^?M-^?M-^?M-^?M-^?M-^?M-^?M-^?M-^?M-^?M-^?M-^?M-^?M-^?^L$GPGGA,024736.000,4458.6259,N,09311.0565,W,1,08,1.05,282.4,M,-32.0,M,,*5F$
$GPGGA,024738.000,4458.6260,N,09311.0567,W,1,07,1.06,282.4,M,-32.0,M,,*55$
$GPGGA,024741.000,4458.6264,N,09311.0567,W,1,08,0.96,282.4,M,-32.0,M,,*58$
$GPGGA,024750.000,4458.6270,N,09311.0564,W,1,08,0.96,282.4,M,1.05,0.80*07$
$GPGGA,024741.000,4458.6264,N,09311.0567,W,1,08,0.96,282.4,M,-32.0,M,,*58$
$GPGGA,024757.000,4458.6267,N,09311.0569,W,1,07,1.00,282.4,M,-32.0,M,,*53$
$GPGGA,024741.000,4458.6264,N,09311.0567,W,1,08,0.96,282.4,M,-32.0,M,,*58$
$GPGGA,024757.000,4458.6267,N,09311.0569,W,1,07,1.00,282.4,M,-32.0,M,,*53$
$GPGGA,024758.000,4458.6265,N,09311.0570,W,1,06,1.18,282.4,M,-32.0,M,,*5E$
$GPGGA,024741.000,4458.6264,N,09311.0567,W,1,08,0.96,282.4,M,-32.0,M,,*58$
$GPGGA,024757.000,4458.6267,N,09311.0569,W,1,07,1.00,282.4,M,-32.0,M,,*53$
$GPGGA,024758.000,4458.6265,N,09311.0570,W,1,06,1.18,282.4,M,-32.0,M,,*5E$
$GPGGA,024741.000,4458.6264,N,09311.0567,W,1,08,0.96,282.4,M,-32.0,M,,*58$
$GPGGA,024759.000,4458.6247,N,09311.0584,W,1,06,1.18,282.4,M,-32.0,M,,*54$
M-^?M-^?M-^?M-^?M-^?^L$GPGGA,024757.000,4458.6267,N,09311.0569,W,1,07,1.00,282.4,M,-32.0,M,,*53$
$GPGGA,024758.000,4458.6265,N,09311.0570,W,1,06,1.18,282.4,M,-32.0,M,,*5E$
$GPGGA,024800.000,4458.6232,N,09311.0594,W,1,07,1.00,282.4,M,-32.0,M,,*5C$
$GPGGA,024741.000,4458.6264,N,09311.0567,W,1,08,0.96,282.4,M,-32.0,M,,*58$
$GPGGA,024759.000,4458.6247,N,09311.0584,W,1,06,1.18,282.4,M,-32.0,M,,*54$
$GPGGA,024757.000,4458.6267,N,09311.0569,W,1,07,1.00,282.4,M,-32.0,M,,*53$
$GPGGA,024801.000,4458.6229,N,09311.0597,W,1,06,1.18,282.4,M,-32.0,M,,*5C$
$GPGGA,024758.000,4458.6265,N,09311.0570,W,1,06,1.18,282.4,M,-32.0,M,,*5E$
$GPGGA,024800.000,4458.6232,N,09311.0594,W,1,07,1.00,282.4,M,-32.0,M,,*5C$
$GPGGA,024741.000,4458.6264,N,09311.0567,W,1,08,0.96,282.4,M,-32.0,M,,*58$
$GPGGA,024759.000,4458.6247,N,09311.0584,W,1,06,1.18,282.4,M,-32.0,M,,*54$
$GPGGA,024802.000,4458.6214,N,09311.0608,W,1,06,1.18,282.4,M,-32.0,M,,*54$
$GPGGA,024757.000,4458.6267,N,09311.0569,W,1,07,1.00,282.4,M,-32.0,M,,*53$
$GPGGA,024801.000,4458.6229,N,09311.0597,W,1,06,1.18,282.4,M,-32.0,M,,*5C$
$GPGGA,024803.000,4458.6206,N,09311.0616,W,1,06,1.18,282.4,M,-32.0,M,,*59$
$GPGGA,024758.000,4458.6265,N,09311.0570,W,1,06,1.18,282.4,M,-32.0,M,,*5E$
$GPGGA,024800.000,4458.6232,N,09311.0594,W,1,07,1.00,282.4,M,-32.0,M,,*5C$
$GPGGA,024804.000,4458.6198,N,09311.0624,W,1,06,1.18,282.4,M,-32.0,M,,*5B$
$GPGGA,024741.000,4458.6264,N,09311.0567,W,1,08,0.96,282.4,M,-32.0,M,,*58$
$GPGGA,024759.000,4458.6247,N,09311.0584,W,1,06,1.18,282.4,M,-32.0,M,,*54$
$GPGGA,024802.000,4458.6214,N,09311.0608,W,1,06,1.18,282.4,M,-32.0,M,,*54$
$GPGGA,024805.000,4458.6197,N,09311.0626,W,1,07,1.00,282.4,M,-32.0,M,,*5F$
$GPGGA,024757.000,4458.6267,N,09311.0569,W,1,07,1.00,282.4,M,-32.0,M,,*53$
$GPGGA,024801.000,4458.6229,N,09311.0597,W,1,06,1.18,282.4,M,-32.0,M,,*5C$
$GPGGA,024803.000,4458.6206,N,09311.0616,W,1,06,1.18,282.4,M,-32.0,M,,*59$
$GPGGA,024806.000,4458.6189,N,09311.0632,W,1,06,1.18,282.4,M,-32.0,M,,*5E$
$GPGGA,024758.000,4458.6265,N,09311.0570,W,1,06,1.18,282.4,M,-32.0,M,,*5E$
$GPGGA,024800.000,4458.6232,N,09311.0594,W,1,07,1.00,282.4,M,-32.0,M,,*5C$
$GPGGA,024804.000,4458.6198,N,09311.0624,W,1,06,1.18,282.4,M,-32.0,M,,*5B$
$GPGGA,024807.000,4458.6185,N,09311.0633,W,1,06,1.18,282.4,M,-32.0,M,,*52$
$GPGGA,024741.000,4458.6264,N,09311.0567,W,1,08,0.96,282.4,M,-32.0,M,,*58$
$GPGGA,024759.000,4458.6247,N,09311.0584,W,1,06,1.18,282.4,M,-32.0,M,,*54$
$GPGGA,024802.000,4458.6214,N,09311.0608,W,1,06,1.18,282.4,M,-32.0,M,,*54$
$GPGGA,024808.000,4458.6182,N,09311.0635,W,1,06,1.18,282.4,M,-32.0,M,,*5C$
$GPGGA,024805.000,4458.6197,N,09311.0626,W,1,07,1.00,282.4,M,-32.0,M,,*5F$
^]M-^AM-9&M-qM-XM-@?$GPGGA,024757.000,4458.6267,N,09311.0569,W,1,07,1.00,282.4,M,-32.0,M,,*53$
&M-qM-XM-@?$GPGGA,024809.000,4458.6180,N,09311.0638,W,1,06,1.18,282.4,M,-32.0,M,,*52$
$GPGGA,024801.000,4458.6229,N,09311.0597,W,1,06,1.18,282.4,M,-32.0,M,,*5C$
$GPGGA,024803.000,4458.6206,N,09311.0616,W,1,06,1.18,282.4,M,-32.0,M,,*59$
$GPGGA,024806.000,4458.6189,N,09311.0632,W,1,06,1.18,282.4,M,-32.0,M,,*5E$
$GPGGA,024810.000,4458.6177,N,09311.0640,W,1,06,1.18,282.4,M,-32.0,M,,*5D$
$GPGGA,024758.000,4458.6265,N,09311.0570,W,1,06,1.18,282.4,M,-32.0,M,,*5E$
$GPGGA,024800.000,4458.6232,N,09311.0594,W,1,07,1.00,282.4,M,-32.0,M,,*5C$
$GPGGA,024804.000,4458.6198,N,09311.0624,W,1,06,1.18,282.4,M,-32.0,M,,*5B$
$GPGGA,024811.000,4458.6175,N,09311.0641,W,1,07,1.00,282.4,M,-32.0,M,,*57$
$GPGGA,024807.000,4458.6185,N,09311.0633,W,1,06,1.18,282.4,M,-32.0,M,,*52$
$GPGGA,024741.000,4458.6264,N,09311.0567,W,1,08,0.96,282.4,M,-32.0,M,,*58$
$GPGGA,024759.000,4458.6247,N,09311.0584,W,1,06,1.18,282.4,M,-32.0,M,,*54$
$GPGGA,024802.000,4458.6214,N,09311.0608,W,1,06,1.18,282.4,M,-32.0,M,,*54$
$GPGGA,024812.000,4458.6171,N,09311.0643,W,1,07,1.00,282.4,M,-32.0,M,,*52$
$GPGGA,024808.000,4458.6182,N,09311.0635,W,1,06,1.18,282.4,M,-32.0,M,,*5C$
$GPGGA,024805.000,4458.6197,N,09311.0626,W,1,07,1.00,282.4,M,-32.0,M,,*5F$
$GPGGA,024813.000,4458.6165,N,09311.0649,W,1,07,1.00,282.4,M,-32.0,M,,*5C$
$GPGGA,024757.000,4458.6267,N,09311.0569,W,1,07,1.00,282.4,M,-32.0,M,,*53$
$GPGGA,024809.000,4458.6180,N,09311.0638,W,1,06,1.18,282.4,M,-32.0,M,,*52$
$GPGGA,024814.000,4458.6158,N,09311.0655,W,1,07,1.00,282.4,M,-32.0,M,,*58$
$GPGGA,024801.000,4458.6229,N,09311.0597,W,1,06,1.18,282.4,M,-32.0,M,,*5C$
$GPGGA,024803.000,4458.6206,N,09311.0616,W,1,06,1.18,282.4,M,-32.0,M,,*59$
^AM-^]t=M-3M-^WM-!<M-]8M-X9M-^PM-`$GPGGA,024806.000,4458.6189,N,09311.0632,W,1,06,1.18,282.4,M,-32.0,M,,*5E$
$GPGGA,024806.000,4458.6189,N,09311.0632,W,1,06,1.18,282.4,M,-32.0,M,,*5E$
$GPGGA,024822.000,4458.6136,N,09311.0665,W,1,07,1.00,282.4,M,-32.0,M,,*56$
$GPGGA,024806.000,4458.6189,N,09311.0632,W,1,06,1.18,282.4,M,-32.0,M,,*5E$
$GPGGA,024822.000,4458.6136,N,09311.0665,W,1,07,1.00,282.4,M,-32.0,M,,*56$
$GPGGA,024823.000,4458.6132,N,09311.0662,W,1,07,1.00,282.4,M,-32.0,M,,*54$
M-^?M-^?M-^?M-^?M-^?M-^?M-^?M-^?M-^?M-^?M-^?M-^?M-^?M-^?M-^?M-^?M-^?M-^?M-^?M-^?M-^?M-^?M-^?M-^?M-^?M-^?M-^?M-^?^L$GPGGA,024806.000,4458.6189,N,09311.0632,W,1,06,1.18,282.4,M,-32.0,M,,*5E$
$GPGGA,024822.000,4458.6136,N,09311.0665,W,1,07,1.00,282.4,M,-32.0,M,,*56$
$GPGGA,024823.000,4458.6132,N,09311.0662,W,1,07,1.00,282.4,M,-32.0,M,,*54$
$GPGGA,024824.000,4458.6127,N,09311.0669,W,1,07,1.00,282.4,M,-32.0,M,,*5C$
$GPGGA,024806.000,4458.6189,N,09311.0632,W,1,06,1.18,282.4,M,-32.0,M,,*5E$
$GPGGA,024822.000,4458.6136,N,09311.0665,W,1,07,1.00,282.4,M,-32.0,M,,*56$
$GPGGA,024823.000,4458.6132,N,09311.0662,W,1,07,1.00,282.4,M,-32.0,M,,*54$
$GPGGA,024825.000,4458.6118,N,09311.0676,W,1,07,1.00,282.4,M,-32.0,M,,*5F$
$GPGGA,024824.000,4458.6127,N,09311.0669,W,1,07,1.00,282.4,M,-32.0,M,,*5C$
$GPGGA,024806.000,4458.6189,N,09311.0632,W,1,06,1.18,282.4,M,-32.0,M,,*5E$
$GPGGA,024822.000,4458.6136,N,09311.0665,W,1,07,1.00,282.4,M,-32.0,M,,*56$
$GPGGA,024826.000,4458.6112,N,09311.0683,W,1,07,1.00,282.4,M,-32.0,M,,*5C$
$GPGGA,024823.000,4458.6132,N,09311.0662,W,1,07,1.00,282.4,M,-32.0,M,,*54$
$GPGGA,024825.000,4458.6118,N,09311.0676,W,1,07,1.00,282.4,M,-32.0,M,,*5F$
$GPGGA,024824.000,4458.6127,N,09311.0669,W,1,07,1.00,282.4,M,-32.0,M,,*5C$
$GPGGA,024827.000,4458.6108,N,09311.0687,W,1,07,1.00,282.4,M,-32.0,M,,*52$
$GPGGA,024806.000,4458.6189,N,09311.0632,W,1,06,1.18,282.4,M,-32.0,M,,*5E$
$GPGGA,024822.000,4458.6136,N,09311.0665,W,1,07,1.00,282.4,M,-32.0,M,,*56$
$GPGGA,024828.000,4458.6101,N,09311.0697,W,1,07,1.00,282.4,M,-32.0,M,,*55$
$GPGGA,024826.000,4458.6112,N,09311.0683,W,1,07,1.00,282.4,M,-32.0,M,,*5C$
$GPGGA,024823.000,4458.6132,N,09311.0662,W,1,07,1.00,282.4,M,-32.0,M,,*54$
$GPGGA,024825.000,4458.6118,N,09311.0676,W,1,07,1.00,282.4,M,-32.0,M,,*5F$
